id,name_he,name_en,type,district,culture,status,has_coa,has_logo,population,size_tier,סוג_מגן,צבע_דומיננטי,תגיות_1,תגיות_2,תגיות_3,תגיות_4,תגיות_5,תגיות_6,תגיות_7,תגיות_8,תגיות_9,תגיות_10,שנת_אימוץ,מעצב,note_1,note_2,note_3,note_4,note_5,note_6,note_7,note_8,color_1,color_2,color_3,color_4,color_5,lat,lng
sajur,סג'ור,Sajur,local,north,druze,found,yes,no,7000,מועצה מקומית,חותם עגול,לא ידוע,שמש,גבעה,עץ,,,,,,,,,,חותם בצורת אליפסה,שמש זורחת מעל עץ על רקע גבעות,,,,,,,,,,,,32.9778,35.2739
mateh-yehuda,מועצה אזורית מטה-יהודה,Mateh Yehuda,regional,jerusalem,jewish,found,yes,no,57000,מועצה אזורית,מרובע,ירוק,אריה,שיבולת חיטה,גלגל שיניים,,,,,,,,,,חותם מרובע ירוק,אריה כסמל שבט יהודה,שתי שיבולים וגלגל חרושת מסמלים את ענפי הפעילות הכלכלית,,,,,,ירוק,לבן,,,,31.75,35.05
gedera,מועצה מקומית גדרה,Gedera,local,center,jewish,found,yes,no,30392,עיירה,חותם עגול,כחול,הר,גבעה,עץ,מוטו,,,,,,,1958,,אומץ בנובמבר 1958,גבעות צהובות על רקע כחול וחום עם עצים ירוקים,"""עלה נעלה וירשנו אותה"" (שלח לך)","""בית יעקב לכו ונלכה"" (יהושע)",,,,,כחול,חום,צהוב,ירוק,,31.8118,34.7726
menashe,מועצה אזורית מנשה,Menashe,regional,haifa,jewish,found,yes,no,15000,מועצה אזורית,חותם עגול,לבן,אריה,,,,,,,,,,2007,,אומץ בינואר 2007,חותם עגול בשחור ולבן,ציור של ראם כסמל שבט מנשה,,,,,,שחור,לבן,,,,32.5167,35.0833
megiddo,מועצה אזורית מגידו,Megiddo,regional,north,jewish,found,yes,no,12200,מועצה אזורית,חותם עגול,לא ידוע,מגן,שדה,מגדל מים,שיבולת חיטה,אריה,,,,,,,,חותם עגול עם שדה חרוש ויישוב עם מגדל מים,גבעות האזור ברקע,שיבולת חיטה לסמל אופי חקלאי,אריה מעל הציור,,,,,,,,,,32.5833,35.1833
baqa-gharbiyye,בקה-אל-גרביה,Baqa al-Gharbiyye,city,haifa,arab,found,yes,no,33000,עיירה,חותם עגול,כחול,מסגד,שדה,ציפור,פרח,,,,,,,,,חותם עגול משלושה חלקים בכחול אפור וירוק,צריח מסגד שדות חרושים ציפור ופרח,,,,,,,כחול,אפור,ירוק,לבן,,32.4179,35.0376
qalansawe,קלנסווה,Qalansawe,city,center,arab,found,yes,no,23877,עיירה,חותם עגול,לבן,מבנה עתיק,פרח,,,,,,,,,,,חותם עגול העטוף בקלפים,ציורי מבנים ותותי שדה ופרח,,,,,,,לבן,אדום,,,,32.2844,34.978
kiryat-yearim,מועצה מקומית קריית-יערים,Kiryat Ye'arim,local,jerusalem,jewish,found,yes,no,5000,מועצה מקומית,חותם עגול,ירוק,הר,עץ,לוחות הברית,,,,,,,,,,איור של הרים ועצים לצד לוחות הברית,האיור מוקף בקו ירוק ובו שם המועצה,,,,,,,ירוק,לבן,,,,31.8103,35.11
migdal,מועצה מקומית מגדל,Migdal,local,north,jewish,found,yes,no,3000,מועצה מקומית,חותם עגול,ירוק,דקל,נחל,,,,,,,,,,,חותם עגול המציג גדת נחל עליה צומח עץ דקל,שם המועצה יוצר עיגול סביב הדקל,,,,,,,,,,,,32.8333,35.5028
drom-hasharon,מועצה אזורית דרום-השרון,Drom HaSharon,regional,center,jewish,found,yes,no,34327,מועצה אזורית,חותם עגול,ירוק,מבנה עתיק,שדה,נחל,עץ,,,,,,,,,חותם עגול עם ציור של תל אפק,שדות חרושים ונחל הירקון למרגלות,עץ בחזית,,,,,,,,,,,32.2111,34.925
hevel-yavne,מועצה אזורית חבל-יבנה,Hevel Yavne,regional,center,jewish,found,yes,no,6920,מועצה אזורית,חותם עגול,לא ידוע,מבנה עתיק,שדה,ענבים,,,,,,,,,,חותם עגול עם בית המדרש של ישיבת כרם ביבנה,שדות חרושים בסמל,אשכולות ענבים משני הצדדים,,,,,,,,,,,31.8228,34.765
hof-hakarmel,מועצה אזורית חוף-הכרמל,Hof HaKarmel,regional,haifa,jewish,found,yes,no,36000,מועצה אזורית,חותם עגול,כחול,גבעה,ים,חיטה,ספינה,,,,,,,,,חותם עגול בכחול ולבן,גבעות הסמוכות לחוף הים,שיבולי חיטה עמוד רומי וספינה,,,,,,כחול,לבן,,,,32.6667,34.95
maale-yosef,מועצה אזורית מעלה-יוסף,Maale Yosef,regional,north,jewish,found,yes,no,11605,מועצה אזורית,חותם עגול,ירוק,עץ,,,,,,,,,,,,חותם עגול עם שדה לבן,עץ ירוק במרכז,,,,,,,לבן,ירוק,,,,33.0833,35.2167
kawkab-abu-al-hija,כאוכב אבו אל-היג'א,Kawkab Abu al-Hija,local,north,arab,found,yes,no,3724,מועצה מקומית,חותם עגול,לא ידוע,שמש,הר,עץ,ציפור,כוכבים,,,,,,,,חותם עגול עם שמש זורחת מעל רכס הרים,עץ בודד מוקף ציפורים,כוכב מחומש אדום בראש,,,,,,,,,,,32.8406,35.3161
bnei-ayish,"בני-עי""ש",Bnei Ayish,local,center,arab,found,yes,no,6895,מועצה מקומית,חותם עגול,כתום,גלגל שיניים,שמש,לוחות הברית,זית,,,,,,,1986,,אומץ בינואר 1986,גלגל שיניים כתום מסמל את ערך העבודה,בית כפרי עם תלמים מסמל אופי כפרי,לוחות הברית מסמלים ערכי יהדות,שמש אדומה עם 11 קרניים מסמלת חופש,ענף זית מסמל שלום,,,כתום,כחול,אדום,לבן,,31.7977,34.7361
eilaboun,עילבון,Eilaboun,local,north,arab,found,yes,no,5812,מועצה מקומית,חותם עגול,לא ידוע,שמש,גבעה,ספר,,,,,,,,,,מסודר בצורת עיגול,שמש זורחת מעל גבעות בראש,ספר עם תווי מוזיקה וסרגל ומחוגה,לחיצת ידיים בתחתית,הסמל תחום בזרי דפנה,,,,,,,,,32.8236,35.3633
zarzir,זרזיר,Zarzir,local,haifa,arab,found,yes,no,13000,מועצה מקומית,חותם עגול,צהוב,גלגל שיניים,שמש,ציפור,שדה,,,,,,,,,צורת גלגל שיניים עם ציורים,שמש זורחת בצהוב ושחור,זרזיר עומד על ענף,מאהל ושדות חרושים,שם המועצה בעברית וערבית,,,,צהוב,שחור,,,,32.7133,35.2831
shomron,מועצה אזורית שומרון,Shomron,regional,judea-samaria,jewish,found,yes,no,25000,מועצה אזורית,מגן,לא ידוע,,,,,,,,,,,,,,,,,,,,,,,,,,32.2,35.15
fureidis,פורידיס,Fureidis,local,haifa,arab,found,yes,no,15000,מועצה מקומית,חותם עגול,לא ידוע,,,,,,,,,,,,,,,,,,,,,,,,,,32.5711,34.9561
kfar-tavor,מועצה מקומית כפר-תבור,Kfar Tavor,local,north,jewish,found,yes,no,4425,מועצה מקומית,אחר,צהוב,הר,חיטה,,,,,,,,,,,רקע קיר אבן צהוב,צללית הר תבור ובתוכה ציור היישוב בהקמתו,שיבולי חיטה משני הצדדים,,,,,,צהוב,,,,,32.6861,35.4261
beer-tuvia,מועצה אזורית באר-טוביה,Beer Tuvia,regional,south,jewish,found,yes,no,23841,מועצה אזורית,אחר,לא ידוע,,,,,,,,,,,,,,,,,,,,,,,,,,31.7333,34.7
binyamin,מועצה אזורית מטה-בנימין,Mateh Binyamin,regional,judea-samaria,jewish,found,yes,no,15000,מועצה אזורית,סמליל,לא ידוע,,,,,,,,,,,,,סמל המועצה הוא סמל שבט בנימין: זאב,"""בנימין זאב יטרף בבקר יאכל עד ולערב יחלק שלל"" (בראשית מ""ט, כ""ז)",,,,,,,,,,,,31.9,35.25
golan,גולן,Golan,regional,north,mixed,found,no,yes,19214,מועצה אזורית,לוגו,לא ידוע,,,,,,,,,,,2005,,לוגו הכולל את שם המועצה,,,,,,,,,,,,,33.05,35.85
hatzor-haglilit,מועצה מקומית חצור-הגלילית,Hatzor Haglilit,local,north,jewish,found,yes,no,9764,מועצה מקומית,לוגו,ירוק,עץ,,,,,,,,,,2019,,לוגו עם צורת עלה בצבעי ירוק כחול סגול וצהוב,שם המועצה בצהוב וירוק,,,,,,,ירוק,כחול,סגול,צהוב,,32.9808,35.5511
majdal-shams,מג'דל-שמס,Majdal Shams,local,north,druze,found,yes,no,11405,מועצה מקומית,לוגו,כחול,הר,שמש,,,,,,,,,,,לוגו בצורת הר עם שמש מאחוריו,תפוח לצד הסמל,שם המועצה בערבית עברית ואנגלית,,,,,,כחול,,,,,33.2717,35.7697
galil-elion,מועצה אזורית גליל-עליון,Galil Elion,regional,north,jewish,found,yes,no,19440,מועצה אזורית,לוגו,ירוק,ציפור,,,,,,,,,,2010,,עגורים המסמלים את נדידת הציפורים באגמון חולה,הצבע הירוק מסמל את מרחבי המועצה,,,,,,,ירוק,,,,,33.0833,35.5
tel-aviv,תל-אביב-יפו,Tel Aviv-Yafo,city,tel-aviv,mixed,found,yes,no,460000,מטרופולין,מגן,ירוק,מגן,גלים,כוכבים,מגדל מים,מוטו,,,,,,1925,נחום גוטמן,עוצב ב-1925 ביוזמת ראש העיר מאיר דיזנגוף,גוטמן התייעץ עם ש. בן ציון ועם חיים נחמן ביאליק,המגדלור מסמל כוונה לגולה לשוב ארצה,שבעת הכוכבים מבוססים על חזון הרצל ליום עבודה של 7 שעות,ב-1927 עוצב הסמל מחדש ובשנות ה-30 נערכו שינויים נוספים,ב-1950 לאחר האיחוד עם יפו הוחלפה הכתובת,"""עוד אבנך ונבנית בתולת ישראל"" (ירמיהו ל""א, ג') הוא מוטו הסמל",ב-2009 לרגל חגיגות המאה אומץ סמליל עיגול צבעוני,ירוק,אדום,לבן,,,32.0853,34.7818
petah-tikva,פתח-תקווה,Petah Tikva,city,center,jewish,found,yes,no,252270,מטרופולין,מגן,כחול,מחרשה,שדה,תפוז,מוטו,,,,,,,1958,,הסמל מבוסס על בול פתח תקווה משנת 1908,הבול נחשב לבול העברי הראשון בארץ ישראל,הבול הונפק ביוזמת יצחק גולדנהירש,המחרשה מסמלת את עבודת האדמה מ-1878,השדות מסמלים את ייבוש ביצות הירקון,"""עובד אדמתו ישבע לחם"" (משלי) מופיע בתחתית הסמל",ב-2008 אומץ סמליל ממותג וב-2018 הוחזר הסמל המקורי,,כחול,לבן,,,,32.0872,34.8867
beer-sheva,באר-שבע,Beer Sheva,city,south,jewish,found,yes,no,211251,מטרופולין,מגן,ירוק,עץ,מגדל מים,מוטו,,,,,,,,1972,חזי מור,עוצב ב-1972 על ידי חזי מור,עץ האשל מסמל בניין ופיתוח,שנים עשר עמודים מייצגים את שנים עשר שבטי ישראל,הסמל הקודם אומץ ב-1950 וכלל עץ אשל צינור מים ומפעל,הסמל הקודם הונצח על בול דואר ב-1965 בעיצוב האחים שמיר,ב-2012 אומץ סמליל ממותג חדש,"""ויטע אשל בבאר שבע"" (בראשית כ""א, ל""ג)",,ירוק,לבן,,,,31.2518,34.7913
bat-yam,בת-ים,Bat Yam,city,tel-aviv,jewish,found,yes,no,159000,עיר גדולה,מגן,כחול,מגן,חומה,ספינה,גלים,גלגל שיניים,כוכבים,,,,,1959,זאב שבזנר,עוצב על ידי מהנדס המועצה זאב שבזנר,קיבל מעמד רשמי ומוגן ב-1959 עם הכרתה כעיר,מפרשית מייצגת את הקשר לשייט ותיירות,גלגל שיניים מסמל את התעשייה,ששה כוכבים מייצגים את ששת ימי הבריאה,הסמל הופיע על בול דואר בעיצוב האחים שמיר ב-1969,,,כחול,אדום,תכלת,צהוב,,32.021,34.7505
ramat-gan,רמת-גן,Ramat Gan,city,tel-aviv,jewish,found,yes,no,162000,עיר גדולה,מגן,ירוק,מגן,כוכבים,שמש,דקל,ענבים,הדר,מחרשה,חומה,מפעל,ארובה,1958,,אומץ רשמית בנובמבר 1958,כוכב משושה גדול מזכיר מגן דוד,שבעה כוכבים קטנים מסמלים את חזון הרצל,"שמש מסמלת את האור ו""היום החדש לעם ישראל""",עץ תמר ואשכול ענבים מסמלים את העבר החקלאי,"חומת אבן ושלושה עצים מסמלים את העיר כ""עיר גנים""",הסמל הופיע על בול דואר ב-1969 בעיצוב האחים שמיר,,ירוק,לבן,זהוב,,,32.0684,34.8248
hadera,חדרה,Hadera,city,haifa,jewish,found,yes,no,100000,עיר גדולה,מגן,ירוק,מגן,עץ,ספינה,מגדל מים,פרדס,שדה,מוטו,,,,1941,,אומץ ב-1941 לרגל חגיגות יובל העיר,עץ האקליפטוס מסמל את ראשית ההתיישבות וייבוש הביצות,שרידי החאן בו התגוררו ראשוני המתיישבים מופיעים בסמל,קני הסוף שנתנו לעיר את שמה הערבי מופיעים בסמל,ספינה מסמלת את הנמל העברי הראשון בעיר ועלייה דרך הים,הסמל הופיע על בול דואר בעיצוב האחים שמיר ב-1969,"""הזורעים בדמעה ברינה יקצורו"" (תהילים קכ""ו, ה')",,ירוק,כחול,לבן,,,32.434,34.9198
beit-shean,בית-שאן,Beit Shean,city,north,jewish,found,yes,yes,18900,מועצה מקומית,מגן,חום,מגן,דקל,גלים,מנורה,חומה,הר,,,,,1983,,הסמל הראשון עוצב ב-1956 בהוראת ראש העיר אפרים דובק,הסמל הנוכחי עודכן ב-1983 על פי מדליון שהפיקה החברה הממשלתית למדליות,עץ התמר מסמל את שבט מנשה שבית שאן בנחלתו,גלים כחולים מסמלים את שפע המעיינות באזור,מחתה שופר ומנורה נמצאו על רצפת הפסיפס בבית הכנסת בתל אצטבה,תיאטרון רומי מסמל את עתיקות העיר,הסמל הופיע על בול דואר ב-1965 בעיצוב האחים שמיר,"""ממגד שמים מעל ומתהום רובצת תחת""",חום,לבן,,,,32.5011,35.5019
kiryat-motzkin,קריית-מוצקין,Kiryat Motzkin,city,haifa,jewish,found,yes,no,43000,עיירה,מגן,כחול,מגן,עץ,ספינה,מגדל מים,גלים,,,,,,2012,"אברהם ניסטי (1946), עוצב מחדש 2012",ההחלטה הראשונה על הסמל התקבלה ב-23 בינואר 1946,עיצוב הסמל המקורי מאת אברהם ניסטי מורה לאמנות,מגדל המים מסמל את המבנה הראשון שנבנה במועצה,הסירה מסמלת את שבט זבולון ואת המעפילים,"""זבולון לחוף ימים ישכון"" (דברים ל""ג)",הסמל עבר שינויים ב-1956 בשנות ה-70 ב-2000 וב-2012,ב-2017 אומץ סמליל ממותג מודרני,,כחול,לבן,,,,32.8355,35.0765
kiryat-yam,קריית-ים,Kiryat Yam,city,haifa,jewish,found,yes,no,40000,עיירה,מגן,לבן,מגן,ספינה,ים,,,,,,,,,,מגן מחומש שחור חצוי בקו שחור,ספינה שטה בים בצד שמאלי,מבנים ועצים בצד ימני,,,,,,שחור,לבן,,,,32.8469,35.0623
sakhnin,סח'נין,Sakhnin,city,north,arab,found,yes,no,32000,עיירה,מגן,ירוק,מגן,שמש,הר,ספינה,גלגל שיניים,זית,,,,,2000,,אומץ ב-31 במאי 2000,שמש מאחורי הרים הצופים על עמק,מנוף בונה מבנה,ספר ועט נוצה מייצגים חינוך,גלגל שיניים וענף זית,,,,,,,,,32.8678,35.2941
yokneam,יקנעם-עילית,Yokneam Illit,city,haifa,jewish,found,yes,no,23000,עיירה,מגן,ירוק,מגן,פרח,מפעל,הר,,,,,,,1961,,אומץ ב-28 בדצמבר 1961,"ורד מסמל את יקנעם כ""ורד העמקים""",שלושה מבני תעשייה מסמלים את פארקי התעשייה בעיר,הסמל הקודם אומץ אף הוא ב-28 בדצמבר 1961 כמועצה מקומית,עם הפיכתה לעיר שונה הסמל לגרסה הנוכחית,,,,ירוק,לבן,,,,32.6587,35.1011
modiin-illit,מודיעין-עילית,Modiin Illit,city,judea-samaria,jewish,found,yes,no,80000,עיר,מגן,תכלת,מגן,כתר,לוחות הברית,,,,,,,,,,מגן בתכלת עם תמונת כתר המסמל כתר התורה,קלף ועליו שם העיר,,,,,,,תכלת,לבן,זהוב,,,31.9298,35.0457
givat-shmuel,גבעת-שמואל,Givat Shmuel,city,tel-aviv,jewish,found,yes,no,28162,עיירה,מגן,לא ידוע,מגן,מגדל מים,נחל,,,,,,,,,,מגן עם תמונת נוף של מבני העיר מגדל מים ונחל,קלף גדול בראש הסמל,,,,,,,,,,,,32.0786,34.8497
maalot-tarshiha,מעלות-תרשיחא,Maalot Tarshiha,city,north,mixed,found,yes,no,22315,עיירה,מגן,זהוב,מגן,ים,ספינה,הר,,,,,,,,,מגן זהוב עם ציור נוף הכולל אגם מוקף הרים,ספינת מפרש שטה באגם,לפיד הוא המוטיב המרכזי,,,,,,זהוב,לבן,,,,33.0155,35.2718
or-akiva,אור-עקיבא,Or Akiva,city,haifa,jewish,found,yes,no,19000,מועצה מקומית,מגן,כחול,מגן,לוחות הברית,מבנה עתיק,מוטו,,,,,,,,,מגן כחול עם חותם עגול חצוי בברק,מבנים עתיקים בחצי שמאלי ומבנים חדשים בחצי ימני,לוחות הברית קורנים בדומה לשמש,"""והיה ראשיתך מצער ואחריתך ישגה מאוד""",,,,,כחול,לבן,,,,32.5033,34.9167
gan-yavne,מועצה מקומית גן-יבנה,Gan Yavne,local,center,jewish,found,yes,no,24251,עיירה,מגן,ירוק,מגן,תפוז,,,,,,,,,1968,,אומץ באוגוסט 1968,מגן ירוק עם בתי מגורים ותפוזים כתומים,,,,,,,ירוק,לבן,כתום,,,31.7883,34.7111
gezer,מועצה אזורית גזר,Gezer,regional,center,jewish,found,yes,no,27622,מועצה אזורית,מגן,לבן,מגן,מבנה עתיק,,,,,,,,,,,מגן בצבעי לבן וסגול,שרטוט תל גזר ומתחתיו שרטוט המערות שנמצאו בתל,כד בתחתית מסמל עתיקות שנמצאו בתל,,,,,,לבן,סגול,,,,31.8575,34.9308
jerusalem,ירושלים,Jerusalem,city,jerusalem,mixed,found,yes,no,970000,מטרופולין,מגן,כחול,מגן,חומה,ענף,אריה,,,,,,,1949,"אליהו קורן, פרנצ'סקה ברוך, עמנואל גראו, איתמר דוד, עלי גרוס, צבי נרקיס",נבחר לאחר תחרות שנפתחה בדצמבר 1948,29 הצעות נדחו בתחרות הראשונה ופרסים הוגדלו,נבחרה הצעת אגודת הציירים הירושלמים לגרפיקה שימושית,האריה השואג מסמל את שבט יהודה וממלכת יהודה,חומות ירושלים מסמלות את העיר העתיקה ואבני הכותל,עלי זית מסמלים שלום ואת עצי הזית באזור,בתקופת המנדט הייתה הצעה לסמל שכלל יונה ומגדל דוד,בשנת 1958 אומץ דגל עירוני בתכלת עם שני פסים לבנים,כחול,לבן,זהוב,,,31.7683,35.2137
haifa,חיפה,Haifa,city,haifa,mixed,found,yes,no,285000,מטרופולין,מגן,תכלת,מגן,מבצר,ספינה,ענף,מגדל מים,גלים,,,,,1936,אסתר ברלין-יואל,אושר על ידי מועצת העיר ב-22 ביוני 1936,ראש העיר חסן שוכרי יזם תחרות ב-1935,ועדה משותפת ליהודים ערבים ונוצרים בחרה את הסמל,"מבצר עתיק ששמו הערבי ""בורג' א-סלאם"" מסמל שלום",ענף זית חוצה את המבצר כסמל שלום,שם העיר מופיע בעברית ערבית ואנגלית,ב-1948 הועבר שם העיר בעברית למרכז הקלף,ב-2010 עוצב סמליל ממותג וב-2019 הוחלף לגרסה חדשה,אדום,תכלת,כחול,,,32.794,34.9896
rishon-lezion,ראשון-לציון,Rishon LeZion,city,center,jewish,found,yes,no,257128,מטרופולין,מגן,כחול,ענבים,באר,הדר,שדה,מפעל,,,,,,1942,,הסמל נוצר ב-1942 לציון 60 שנה למושבה,הגפן ואשכול הענבים מסמלים את תעשיית היין,"הבאר עם הכיתוב ""מצאנו מים"" מסמלת את הבאר הראשונה",עץ הדר מסמל את פרדסי ההדרים,ב-2012 אומץ סמליל ממותג עץ וב-2018 הוחזר הסמל המקורי,,,,כחול,לבן,ירוק,,,31.973,34.7925
ashdod,אשדוד,Ashdod,city,south,jewish,found,yes,no,225975,מטרופולין,מגן,כחול,אריה,עוגן,מפרשים,ים,,,,,,,1962,"יצחק בכר, ב-2016 פערי אויש",הסמל הראשון נבחר ב-1962 מתוך 119 הצעות,ראש האריה מסמל את שבט יהודה,העוגן מסמל את נמל אשדוד,ב-2016 אומץ סמל חדש לרגל 60 שנה לעיר,הסמל החדש כולל מפרשים מכיכר יהודי סלוניקי וראש אריה,הסמל הישן הונצח על בול דואר ב-1965 בעיצוב האחים שמיר,,,כחול,לבן,כתום,,,31.8044,34.6553
netanya,נתניה,Netanya,city,center,jewish,found,yes,no,224066,מטרופולין,מגן,כחול,מגן,פרח,גלים,ארובה,,,,,,,1951,יעקב צים,הסמל המקורי עוצב ב-1951 על ידי יעקב צים,חבצלת השרון צומחת לאורך המצוק החופי,ארובות מסמלות את התעשייה,יהלום מסמל את תעשיית היהלומים,ב-2015 הוצג סמל חדש שהתגלה כהעתק מסמל מסעדה ובוטל,הסמל הופיע על בול דואר ב-1969 בעיצוב האחים שמיר,,,כחול,לבן,כתום,,,32.3328,34.86
bnei-brak,בני-ברק,Bnei Brak,city,tel-aviv,jewish,found,yes,no,210000,מטרופולין,מגן,כחול,מגן,חומה,שמש,גבעה,מוטו,,,,,,1937,שכנא רוטנברג,הרעיון לסמל הוגה על ידי גזבר המועצה שכנא רוטנברג,שתי גבעות מייצגות את גבעת רוקח וגבעת הישיבה,השמש הזורחת מבוססת על הסיפור בהגדה של פסח על לילת הסדר בבני ברק,לוחות הברית מייצגים את צביונה התורני של העיר,,,,,כחול,צהוב,,,,32.0837,34.8337
holon,חולון,Holon,city,tel-aviv,jewish,found,yes,no,200000,מטרופולין,מגן,תכלת,מגן,עץ,חומה,מוטו,,,,,,,1946,אסתר ברלין-יואל,נבחר מבין מספר הצעות על ידי ועדה ציבורית ב-1946,עץ שקמה צומח מדיונת חול מסמל את הקמת העיר על חולות,הכתר בצורת מגדל מים,"הכתובת ""אף על פי כן ולמרות הכל"" מתוך שיר של דוד שמעוני",הסמל הופיע על בול דואר בעיצוב האחים שמיר ב-1969,ב-2012 עוצב סמליל ממותג עם אותיות מעוצבות,,,כחול,תכלת,כתום,לבן,,32.0104,34.7794
rehovot,רחובות,Rehovot,city,center,jewish,found,yes,no,147878,עיר גדולה,מגן,כחול,תפוז,ענף,,,,,,,,,,,שני תפוזים תלויים מענף,מגן דוד קטן מופיע בסמל,מיקרוסקופ מסמל את מכון ויצמן,ספר פתוח מסמל חינוך,"""ויקרא שמה רחובות"" (בראשית כ""ו, כ""ב) מופיע מעל הסמל",הסמל הונצח על בול דואר ב-1970 בעיצוב האחים שמיר,,,כחול,לבן,,,,31.8928,34.8113
herzliya,הרצליה,Herzliya,city,tel-aviv,jewish,found,yes,no,100000,עיר גדולה,מגן,תכלת,מגן,כוכבים,ספינה,גלגל שיניים,חיטה,הדר,,,,,,,שבעה כוכבים מסמלים את חזון הרצל ליום עבודה של שבע שעות,ספינה מסמלת את קרבת העיר לים התיכון,"ב-2011 אומץ סמליל ממותג חדש עם כוכב תלת-ממדי תחת הסיסמה ""אם נרצה""",,,,,,תכלת,זהוב,לבן,,,32.1663,34.8432
kfar-saba,כפר-סבא,Kfar Saba,city,center,jewish,found,yes,no,101801,עיר גדולה,מגן,כתום,מגן,הדר,עץ,חאן,,,,,,,1953,יעקב אבוקאי,עוצב ב-1953 בשנת היובל להתיישבות בכפר סבא,החאן הוא המבנה הראשון בעיר וכיום משמש כבית העירייה,עצי האקליפטוס ניטעו ליד החאן ב-1906,בראש הסמל שנת הקמת החאן 1903,הסמל הופיע על בול דואר ב-1970 בעיצוב האחים שמיר,ב-2022 עוצב סמליל ממותג לרגל 120 שנים לעיר,,,ירוק,כתום,,,,32.175,34.9077
lod,לוד,Lod,city,center,mixed,found,yes,no,82629,עיר,מגן,ירוק,מגן,שער,עץ,שדה,ענף,מוטו,,,,,,,"קשת אבן כ""שער פתוח לכל באיו""",צללית עץ מסמל את החורשות באזור,שדה חרוש מסמל את הסביבה החקלאית,"""ושבו בנים לגבולם"" (ירמיהו) בתחתית",,,,,,,,,,31.9516,34.8965
ramla,רמלה,Ramla,city,center,mixed,found,yes,no,77798,עיר,מגן,ירוק,מגן,זית,גלגל שיניים,,,,,,,,1952,צבי נרקיס,נבחר בתחרות שנערכה על ידי העירייה,ועדה בראשות יעקב בן-סירא בחרה בעיצובו של צבי נרקיס,זוכה קיבל 150 לירות ישראליות,הסמל אושר רשמית ב-18 באוקטובר 1970,ענף זית מייצג את כרמי הזית ותעשיית הסבון,מגן דוד מסמל את זהות העיר כעיר עברית קולטת עלייה,הסמל הופיע על בול דואר ב-1969 בעיצוב האחים שמיר,"ב-2012 מותגה העיר עם סמל חדש תחת הסלוגן ""קרובה ללב שלך""",ירוק כהה,לבן,,,,31.9295,34.8726
givatayim,גבעתיים,Givatayim,city,tel-aviv,jewish,found,yes,no,59000,עיר,מגן,כחול,מגן,הר,גבעה,שדה,מפעל,,,,,,1959,,שני הרים מסמלים את גבעת בורוכוב וגבעת קוזלובסקי,שדות מסמלים את העבר החקלאי,מפעל תעשייתי מסמל את פיתוח העיר,הסמל הופיע על בול דואר בעיצוב האחים שמיר ב-1969,ב-2023 עוצב סמליל ממותג על בסיס שלט הכניסה ההיסטורי,,,,כחול,לבן,,,,32.0704,34.8128
eilat,אילת,Eilat,city,south,jewish,found,yes,no,52753,עיר,מגן,כחול,מגן,ים,עוגן,גלגל שיניים,מבצר,,,,,,1958,סטודיו רוטשילד את ליפמן,אומץ בינואר 1958 לאחר תחרות שהוגשו לה 41 הצעות,הפרס הראשון היה 400 לירות ישראליות,העוגן מייצג את נמל אילת,המבצר מסמל את ערכה הביטחוני בגבול עם ירדן מצרים וערב הסעודית,גלגל השיניים מסמל את התעשייה והמחצבים,בשנים האחרונות בשימוש סמליל ממותג עם האות א' בתשעה גוונים,,,כחול,לבן,,,,29.5577,34.9519
nes-ziona,נס-ציונה,Nes Ziona,city,center,jewish,found,yes,no,50456,עיר,מגן,ירוק,מגן,פרח,תפוז,גלגל שיניים,כוכבים,,,,,,1958,,פורסם ב-13 בנובמבר 1958 ואושר ב-13 באפריל 1972,דבורה מסמלת את ענף הכוורנות,שבעה כוכבים מבוססים על חזון הרצל,הדגל בסמל מסמל את האירוע בו הונף דגל כחול-לבן לראשונה ב-1891,ב-2014 אומץ סמליל ממותג וב-2019 הוחלט לחזור לסמל המקורי,,,,ירוק,לבן,כחול,זהוב,,31.9307,34.7993
elad,אלעד,Elad,city,center,jewish,found,yes,no,49593,עיירה,מגן,כחול,מגן,עץ,מוטו,,,,,,,,,,צורת המגן מזכירה לוחות הברית,עץ האלה הארצישראלי מסמל יציבות וחוסן,ספר פתוח מייצג את ספר התורה ואת אופייה החרדי של העיר,המוטו הרשמי הוא עיר התורה הקרובה אליך,,,,,כחול,לבן,,,,32.053,34.9519
kiryat-bialik,קריית-ביאליק,Kiryat Bialik,city,haifa,jewish,found,no,yes,40000,עיירה,מגן,כחול,מגן,ספר,,,,,,,,,2016,אורגד עמר,הסמל הנוכחי אומץ בתחרות ב-2016 מתוך 24 הצעות,ספר כולל תווי נגינה מסמלים את שאיפת העיר להיות בירת הספרות והשירה,סמל העיר הישן מוטבע בתוך הספר,הסמל הראשון אומץ ב-1935,,,,,כחול,תכלת,לבן,,,32.8282,35.0752
kiryat-gat,קריית-גת,Kiryat Gat,city,south,jewish,found,yes,no,60582,עיר,מגן,ירוק,חומה,גלגל שיניים,פרח,,,,,,,,,,הצבע הירוק מאפיין את השדות הירוקים,הצבע האדום זכר לנופלים במלחמת הקוממיות,החומה מסמלת ביצורי רחבעם מלך יהודה,ענף כותנה מסמל את הגידול החקלאי ותעשיית הטקסטיל,ב-2009 הוצעה החלפת הסמל בשל דמיון לדגל איראן,,,,ירוק,אדום,,,,31.61,34.7642
karmiel,כרמיאל,Karmiel,city,north,jewish,found,yes,no,46311,עיירה,מגן,כחול,מגן,כלנית,שמש,הר,,,,,,,1971,,אומץ ביולי 1971,כלנית בצבע אדום היא פרח הבר הנפוץ ביותר באזור,סלעים מסמלים את ראשיתה של העיר,ב-2010 חברת שיר שפיצר חידשה את מיתוג העיר,"הסמל החדש שימש לתקופה קצרה והוחלף במיתוג ""כרמיאל לגדול ולגדל""",,,,כחול,לבן,,,,32.9143,35.2984
tiberias,טבריה,Tiberias,city,north,jewish,found,yes,no,,מועצה מקומית,מגן,כחול,מגן,גלים,דקל,מזרקה,חומה,,,,,,1957,גדעון קייך,אומץ ב-24 בדצמבר 1957 ואושר על ידי משרד הפנים בנובמבר 1958,זכה בפרס ראשון של 350 לירות בתחרות שנפתחה ב-1950,מקום שני בתחרות זכה המעצב צבי נרקיס,המזרקה מסמלת את חמי טבריה והמעיינות החמים,חומות ומבנים מנגידים את העיר העתיקה והעיר המודרנית,הסמל עודכן גרפית ב-2017,ב-2022 עוצב סמליל ממותג צבעוני,הסמל הופיע על בול דואר ב-1965 בעיצוב האחים שמיר,כחול,לבן,,,,32.794,35.532
rosh-haayin,ראש-העין,Rosh HaAyin,city,center,jewish,found,yes,no,71651,עיר,מגן,כחול,מגן,קרני אור,מזרקה,עץ,,,,,,,1968,אהרון אלקלעי ומרדכי יצהרי,אושר בישיבת המועצה ב-1 בדצמבר 1968,עוצב על ידי אהרון אלקלעי מדריך ציור ומרדכי יצהרי סופר ומשורר,"כנפי נשרים מבוססות על ""ואשא אתכם על כנפי נשרים"" (שמות י""ט, ד')","קרני האור יוצרות דוגמת ""מרבד הקסמים""",הסמל מזכיר את מבצע על כנפי נשרים ועלייה מתימן,המזרקה מסמלת את מעיינות ראש העין ומקורות הירקון,,,כחול,צהוב,לבן,,,32.0956,34.9553
ariel,אריאל,Ariel,city,judea-samaria,jewish,found,yes,no,20000,עיירה,מגן,כחול,מגן,הר,שמש,,,,,,,,1978,דליה לוי,עוצב על ידי תושבת העיר דליה לוי בתחרות שערכה המועצה המקומית,הרי שומרון בתחתית הסמל,זריחת שמש מעל ההרים בחלק העליון,במקור עוצב בצבעי חום וכתום,,,,,כחול,לבן,,,,32.1058,35.1671
hod-hasharon,הוד-השרון,Hod HaSharon,city,center,jewish,found,yes,no,65363,עיר,מגן,ירוק,מגן,עץ,הדר,גלגל שיניים,,,,,,,,,מגן ירוק ולבן עם חלק תחתון אדום,עץ הדר בצורת גלגל שיניים צומח מהחלק האדום,בתחתית שמותיהן של ארבע המושבות שהתאחדו ב-1964,,,,,,ירוק,אדום,לבן,,,32.154,34.8972
nof-hagalil,נוף-הגליל,Nof HaGalil,city,north,jewish,found,yes,no,47000,עיירה,מגן,לבן,מגן,פרח,מסגד,חומה,גלגל שיניים,זית,כתר,,,,2019,,אומץ ביוני 2019,פרח אירוס במרכז,צריח וכתר מעל האירוס,חומה וגלגל תעשייה בצבע אדום,ענפי זית משני הצדדים כסמל ישראל,,,,לבן,אדום,ירוק,,,32.7006,35.3272
harish,חריש,Harish,city,haifa,jewish,found,yes,no,25000,עיירה,מגן,כחול,מגן,עץ,,,,,,,,,,,מגן עם מסגרת כחולה ושדה לבן,שם העירייה בראש,סמליל עצים ובתים על גבעה בתחתית,,,,,,כחול,לבן,,,,32.4586,35.0397
migdal-haemek,מגדל-העמק,Migdal HaEmek,city,north,jewish,found,yes,no,26000,עיירה,מגן,ירוק,מגן,הר,שדה,גלגל שיניים,זית,,,,,,,,יישוב על הר הצופה על שדות חרושים,תחתית הסמל בצורת גלגל שיניים מסמל תעשייה,ענף זית מסמל שלום,,,,,,ירוק,לבן,,,,32.6745,35.2398
nesher,נשר,Nesher,city,haifa,jewish,found,yes,no,23000,עיירה,מגן,לבן,מגן,גבעה,עץ,מפעל,ארובה,חומה,ציפור,,,,1962,דוד הולוד,עוצב על ידי דוד הולוד ואושר ב-24 באוקטובר 1962,ציפור נשר בצורת כתר מייצגת את שם העיר,ארבע גבעות מסמלות את ארבעת היישובים שהרכיבו את העיר,מפעל וארובה מסמלים את מפעל המלט,חומת לבנים הרוסה מסמלת בניית שיכונים לעולים על חורבות כפרים,,,,לבן,ירוק,אדום,חום,,32.7736,35.0494
tirat-carmel,טירת-כרמל,Tirat Carmel,city,haifa,mixed,found,yes,no,23000,עיירה,מגן,חום,מגן,עץ,,,,,,,,,,,מגן עם מסגרת חומה,ציור עץ בצבעי חום על רקע כחול ולבן,,,,,,,חום,כחול,לבן,,,32.7604,34.9697
kiryat-tivon,מועצה מקומית קריית-טבעון,Kiryat Tivon,local,haifa,jewish,found,yes,no,16000,מועצה מקומית,מגן,ורוד,מגן,פרח,,,,,,,,,,,מגן ירוק עם שדה ורוד,איור של רקפת,,,,,,,ירוק,ורוד,,,,32.7281,35.1228
emek-hefer,מועצה אזורית עמק-חפר,Emek Hefer,regional,center,jewish,found,yes,no,42880,מועצה אזורית,מגן,צהוב,מגן,דג,מגדל מים,תפוז,,,,,,,,,מגן עם מסגרת צהובה חצוי לשניים,חלק שמאלי עם דג,חלק ימני עם יישוב מגדל מים ועץ תפוזים,,,,,,צהוב,כחול,,,,32.3719,34.923
gilboa,מועצה אזורית גלבוע,Gilboa,regional,north,jewish,found,yes,no,32165,מועצה אזורית,מגן,ירוק,מגן,גבעה,שדה,פרח,,,,,,,,,מגן עגול עם קסדה וציצה בצורת שופר,נוף גבעות עם שדות חרושים,פטיש עטוף בענפים ופרחים בחזית,,,,,,,,,,,32.4833,35.4
kiryat-malachi,קריית-מלאכי,Kiryat Malachi,city,south,jewish,found,yes,no,25022,עיירה,מגן,לא ידוע,גלגל שיניים,פרח,,,,,,,,,,,פרח הפשתן מסמל את מפעל הפשתן הראשון בעיר,גלגל שיניים מסמל את ענף התעשייה,פטיש מסמל את ענף בתי המלאכה,מאזניים מסמלים את ענף המסחר,ב-2022 אומץ סמליל ממותג לרגל 70 שנה לעיר,,,,,,,,,31.7324,34.7474
tira,טירה,Tira,city,center,arab,found,yes,no,27392,עיירה,מגן,לבן,מגן,עץ דקל,מסגד,ספר,,,,,,,,,מגן עם מסגרת שחורה ושדה לבן,עץ דקל מסגד וספר,הצבעים הם צבעי הלאומיות הכלל-ערבית,,,,,,שחור,לבן,,,,32.2337,34.9497
yehud-monosson,יהוד-מונוסון,Yehud-Monosson,city,tel-aviv,jewish,found,yes,yes,30619,עיירה,מגן,כחול,מגן,דקל,מחרשה,אריה,מוטו,,,,,,1951,,מבוסס על סמל המועצה המקומית יהוד שאומץ ב-1951,משמש את העיר המאוחדת מאז איחוד יהוד ומונוסון ב-2003,גור אריה מסמל את שבט יהודה,ניתוץ שלשלאות מסמל שחרור מכובשים זרים,מבני מגורים ומחרשה מייצגים פיתוח וחקלאות,"""יהודה אתה יודוך אחיך"" (בראשית מ""ט, ח')",לנהלה המקומית בנווה מונוסון יש סמל נפרד עם בית ועץ וקשת בענן,,כחול,לבן,,,,32.0301,34.8888
azor,מועצה מקומית אזור,Azor,local,tel-aviv,jewish,found,no,yes,24000,עיירה,מגן,תכלת,מגן,כוכבים,מבצר,שדה,פרדס,,,,,,1970,,אושר רשמית ב-30 ביולי 1970,פס אלכסוני שחור מסמל את כביש 44,שבעה כוכבים מייצגים את שבעת הנוטרים שנפלו בפריצת הדרך לירושלים,מבנה אבן עתיק מסמל את מצודת המישור ואתרים עתיקים,שיחי צבר מייצגים את הכפר יאזור שננטש במלחמת העצמאות,ב-2022 הוצג סמליל ממותג חדש שאינו מחליף את הסמל הרשמי,,,תכלת,שחור,לבן,,,32.0201,34.8163
beit-dagan,מועצה מקומית בית-דגן,Beit Dagan,local,center,jewish,found,yes,no,7644,מועצה מקומית,מגן,כחול,מגן,מגן דוד,,,,,,,,,,,מגן עם מסגרת כחולה ושדה לבן,מגן דוד עם להבה עולה,ציורי יישוב וקרניים ירוקות,,,,,,כחול,לבן,ירוק,,,32.0025,34.8264
beit-jann,בית-ג'ן,Beit Jann,local,north,druze,found,yes,no,12307,מועצה מקומית,מגן,לבן,מגן,ענבים,הר,,,,,,,,1964,,אומץ עם כינון המועצה המקומית ב-1964,אשכול ענבים נבחר כמוטיב מרכזי בשל הכרמים ותעשיית היין בכפר,דובדבנים נוספו לסמל לאחר קליטת הגידול בכפר,הרים בצבע צהוב מייצגים את מיקום הכפר בגליל העליון ההררי,צבעי הסמל תואמים את צבעי הדגל הדרוזי,שם המועצה מופיע בערבית בראש ובאנגלית בתחתית,,,לבן,ירוק,אדום,צהוב,כחול,32.9556,35.364
bueine-nujeidat,בועיינה-נוג'ידאת,Bueine-Nujeidat,local,north,arab,found,yes,no,10137,מועצה מקומית,מגן,ירוק,מגן,זית,שדה,טרקטור,,,,,,,,,עץ זית מוקף שדות חרושים,חקלאי על טרקטור ופרש רוכב על סוס לבן,,,,,,,,,,,,32.8144,35.3228
ein-mahel,עין-מאהל,Ein Mahel,local,north,arab,found,yes,no,13748,מועצה מקומית,מגן,כתום,מגן,מסגד,,,,,,,,,,,מגן עם שדה כתום,ציור מסגד ושם המועצה בערבית,,,,,,,כתום,,,,,32.7256,35.3636
elyakhin,מועצה מקומית אליכין,Elyakhin,local,center,jewish,found,yes,no,3461,מועצה מקומית,מגן,תכלת,מגן,שמש,עץ,,,,,,,,1990,,אומץ ב-20 במרץ 1990,מגן עם שדה תכלת וציורי בתים ועץ,שמש אדומה זורחת מהחלק התחתון,,,,,,תכלת,אדום,לבן,,,32.4008,34.9217
ganey-tikva,מועצה מקומית גני-תקוה,Ganey Tikva,local,center,jewish,found,yes,no,22694,עיירה,מגן,לא ידוע,מגן,דקל,שדה,מגדל מים,,,,,,,1973,,מגן עם נוף העיר,מגדלי מגורים לצד בתים צמודי קרקע ומגדל מים,עץ דקל גדול על שדות חרושים,,,,,,,,,,,32.062,34.884
hurfeish,חורפיש,Hurfeish,local,north,druze,found,yes,no,6581,מועצה מקומית,מגן,לבן,מגן,,,,,,,,,,1969,,אומץ בספטמבר 1969,מגן לבן עם ציצה מארבעה כובעים בצבעים ירוק אדום צהוב וכחול,צבעי הסמל הם צבעי דגל הדרוזים,,,,,,ירוק,אדום,צהוב,כחול,לבן,33.0183,35.3786
ibillin,אעבלין,I'billin,local,north,arab,found,yes,no,13692,מועצה מקומית,מגן,ירוק,מגן,הר,נחל,עץ,שדה,שמש,,,,,,,הר שממנו זורם נחל לצד עצים ושדות חרושים,שמש זורחת מאחורי ההר,,,,,,,,,,,,32.8475,35.1658
jisr-az-zarqa,ג'סר-א-זרקא,Jisr az-Zarqa,local,haifa,arab,found,yes,no,16000,מועצה מקומית,מגן,לא ידוע,מגן,מסגד,,,,,,,,,,,מבנהו כמגן הפוך על גשר,ציור כפר עם צריח מסגד,,,,,,,,,,,,32.5369,34.9139
kabul,כאבול,Kabul,local,north,arab,found,yes,no,14473,מועצה מקומית,מגן,כחול,מגן,עץ,ענבים,,,,,,,,,,מגן עם עץ על רקע שמיים כחולים,אשכול ענבים לצד העץ,,,,,,,כחול,לבן,,,,32.8408,35.1947
kadima-zoran,מועצה מקומית קדימה-צורן,Kadima Zoran,local,center,jewish,found,yes,no,22920,עיירה,מגן,כתום,מגן,תפוז,טרקטור,שדה,גבעה,ענף,,,,,2003,,אומץ עם איחוד המושבות קדימה וצורן ב-2003,"מבוסס על סמל המושבה קדימה שעליו נכתב ""בעמלך תצעד קדימה""",עץ תפוז מסמל את הפרדסים הרבים באזור,טרקטור וחקלאי חורשים מייצגים את אופייה החקלאי,משולש הפוך במרכז מציג יישוב חקלאי עם שדות וגבעות,הצבעים ירוק וכתום מסמלים יערות ופרדסים,,,כתום,ירוק,לבן,,,32.2694,34.9128
kafr-bara,כפר-ברא,Kafr Bara,local,center,arab,found,yes,no,3856,מועצה מקומית,מגן,צהוב,מגן,ענף,,,,,,,,,,,מגן עם שדה צהוב,חציל ולצידו ענפים,,,,,,,צהוב,,,,,32.2197,34.9644
kafr-qara,כפר-קרע,Kafr Qara,local,haifa,arab,found,yes,no,16000,מועצה מקומית,מגן,לבן,מגן,יונה,חיטה,,,,,,,,,,מגן עם מסגרת אדומה,ציור הכפר מתחתיו יונה ושיבולי חיטה,הסמל מבוסס על ויטראז' במבנה המועצה,,,,,,אדום,לבן,,,,32.5094,35.0197
kfar-kama,כפר-קמה,Kfar Kama,local,north,circassian,found,yes,no,3479,מועצה מקומית,מגן,לא ידוע,מגן,שמש,הר,,,,,,,,1974,,אומץ בנובמבר 1974,פרש צ'רקאסי על סוס שחור על רקע שמש זורחת מאחורי הרים,שם המועצה בעברית ובצ'רקסית,,,,,,,,,,,32.7253,35.4436
kfar-shmaryahu,מועצה מקומית כפר-שמריהו,Kfar Shmaryahu,local,tel-aviv,jewish,found,yes,no,5000,מועצה מקומית,מגן,ירוק,מגן,שדה,פרח,מבנה עתיק,,,,,,,,,מגן ירוק עם שם המועצה בראש,איור של בית שמריהו לוין,שדות ופרח מתחתיו,,,,,,ירוק,לבן,,,,32.1919,34.823
kfar-yona,מועצה מקומית כפר-יונה,Kfar Yona,local,center,jewish,found,yes,no,27898,עיירה,מגן,ירוק,מגן,עץ,חיטה,,,,,,,,1958,,מגן ירוק ולבן עם עץ פרי עמוס בפירות אדומים,הסמל נתמך בשתי שיבולי חיטה משני צידיו,,,,,,,ירוק,לבן,אדום,,,32.315,34.9372
shibli-umm-al-ghanam,שבלי-אום אל-ע'נם,Shibli,local,north,arab,found,yes,no,5000,מועצה מקומית,מגן,צהוב,מגן,הר,שדה,חיטה,שמש,,,,,,,,מגן עם שדה צהוב מוקף שיבולי חיטה,ציור הר ושביל עולה לפסגה,עצים ואוהל לצד השביל,שמש אדומה מאחורי ההר,,,,,צהוב,אדום,,,,32.6028,35.3739
maghar,מג'אר,Maghar,local,north,mixed,found,yes,no,34000,עיירה,מגן,ירוק,מגן,עץ,,,,,,,,,,,מגן עם אבן ריחיים ועץ,צבעי הסמל ירוק ולבן,,,,,,,ירוק,לבן,,,,32.8769,35.4022
mevaseret-zion,מועצה מקומית מבשרת-ציון,Mevaseret Zion,local,jerusalem,jewish,found,yes,no,25000,עיירה,מגן,ירוק,מגן,עץ,הר,,,,,,,,,,מגן עם שדה ירוק,עץ צומח מעל יישוב בין הרים,,,,,,,ירוק,לבן,,,,31.8053,35.1441
mielya,מעיליא,Mielya,local,north,arab,found,yes,no,4000,מועצה מקומית,מגן,לבן,מגן,מבצר,ענף,,,,,,,,,,מגן עם שדה לבן,ציור מבצר המונפור מעל קלף הנושא את שם המבצר,ציורי עלים משני הצדדים,,,,,,לבן,,,,,33.0514,35.3078
yanuh-jat,יאנוח-ג'ת,Yanuh-Jat,local,north,druze,found,yes,no,7000,מועצה מקומית,מגן,לבן,מגן,יונה,זית,,,,,,,,,,מגן עם שדה לבן,יונות עפות מעל מבנה,ענפי זית משני הצדדים,,,,,,לבן,,,,,32.9642,35.2697
brener,מועצה אזורית ברנר,Brener,regional,center,jewish,found,yes,no,8046,מועצה אזורית,מגן,ירוק,מגן,שדה,טרקטור,גלגל שיניים,פרדס,,,,,,,,מגן בצורת יהלום,טרקטור חקלאי חורש שדה על רקע פרדס,שני גלגלי שיניים מאחורי הטרקטור,,,,,,,,,,,31.8611,34.8072
bustan-al-marj,בוסתאן-אל-מרג',Bustan al-Marj,regional,north,arab,found,yes,no,8137,מועצה אזורית,מגן,ירוק,מגן,גבעה,שדה,עץ,,,,,,,,,מגן אליפטי התחום בשני עצים הנוטים אחד לשני,רכס גבעות עם מבנים בפסגות,שדות חרושים בין הגבעות,,,,,,ירוק,לבן,,,,32.8667,35.35
el-batouf,אל-בטוף,El-Batouf,regional,north,arab,found,yes,no,8408,מועצה אזורית,מגן,ירוק,מגן,הר,גבעה,דקל,מבנה עתיק,שדה,חיטה,,,,,,מגן עם מסגרת ירוקה ושדה לבן,הרים גבעות ועץ דקל,הריסות מבנה וחקלאי,שיבולי חיטה משני הצדדים,,,,,ירוק,לבן,,,,32.8333,35.3167
gan-rave,מועצה אזורית גן-רוה,Gan Rave,regional,center,jewish,found,yes,no,6585,מועצה אזורית,מגן,כחול,מגן,שדה,ים,זית,,,,,,,,,מגן עם ציור יישוב לצד שדות חרושים אדומים על חוף הים,מוקף בענפי זית,,,,,,,כחול,לבן,אדום,,,31.7619,34.7061
hof-hasharon,מועצה אזורית חוף-השרון,Hof HaSharon,regional,center,jewish,found,yes,no,14872,מועצה אזורית,מגן,לבן,מגן,שדה,ים,,,,,,,,,,מגן לבן עם שדות חרושים לצד חוף ים,,,,,,,,לבן,כחול,,,,32.3975,34.868
lev-hasharon,מועצה אזורית לב-השרון,Lev HaSharon,regional,center,jewish,found,yes,no,23672,מועצה אזורית,מגן,ירוק,מגן,שמש,שדה,הדר,,,,,,,,,מגן ירוק עם שמש כתומה שוקעת מעל שדות חרושים,ענף עץ תפוז בצד,,,,,,,ירוק,כתום,לבן,,,32.3419,34.9027
merom-hagalil,מועצה אזורית מרום-הגליל,Merom HaGalil,regional,north,jewish,found,yes,no,15892,מועצה אזורית,מגן,ירוק,מגן,עץ,הר,,,,,,,,,,ציור בצבע ירוק בהיר של חופת עצים,נוף רכס הרים ויישוב למרגלותיו,,,,,,,ירוק,לבן,,,,33.0167,35.4667
mevoot-hermon,מועצה אזורית מבואות-החרמון,Mevoot Hermon,regional,north,jewish,found,no,yes,3000,מועצה אזורית,מגן,לבן,מגן,עץ,שדה,הר,,,,,,,,,מגן עם שדה לבן,עצים שדות חרושים ובתים,שתי פסגות מושלגות של החרמון ברקע,,,,,,לבן,,,,,33.25,35.65
zvulun,מועצה אזורית זבולון,Zvulun,regional,haifa,jewish,found,yes,no,16000,מועצה אזורית,מגן,כחול,מגן,גבעה,חיטה,,,,,,,,,,מגן בצורת צריח,נוף גבעות ירוקות על רקע תכלת,שיבולת חיטה לבנה ושם המועצה,,,,,,כחול,תכלת,לבן,,,32.8167,35.0833
gush-halav,גוש חלב,Gush Halav,local,north,arab,found,yes,no,3154,מועצה מקומית,מגן,כחול,מגן,יונה,,,,,,,,,,,מגן בנוי מלבנים לבנות וכחולות,יונה בצבע צהוב במרכז,,,,,,,כחול,לבן,צהוב,,,33.0197,35.4186
kafr-kanna,כפר כנא,Kafr Kanna,local,north,arab,found,yes,no,23705,עיירה,מגן,כחול,מגן,עץ,ענבים,,,,,,,,,,מגן עם עץ על רקע שמיים כחולים,אשכול ענבים לצד העץ,,,,,,,כחול,לבן,,,,32.7461,35.3383
mazkeret-batya,מועצה מקומית מזכרת-בתיה,Mazkeret Batya,local,center,jewish,found,yes,no,15424,מועצה מקומית,מגן מחולק,לא ידוע,מגן,תפוז,ענבים,חיטה,מזרקה,,,,,,,,מגן מחולק לארבעה רבעים,"בית כנסת, עץ תפוז, כיכר עם מזרקה, אשכול ענבים",שיבולת חיטה במרכז,,,,,,,,,,,31.8586,34.7446
zichron-yaakov,מועצה מקומית זכרון-יעקב,Zichron Yaakov,local,haifa,jewish,found,yes,no,25000,עיירה,מגן מחולק,חום,מגן,ענבים,חיטה,עץ,גבעה,,,,,,,,מגן חום מחולק ל-4 רבעים,נבל ברבע עליון ימין,אשכול ענבים ברבע תחתון ימין,שיבולת חיטה ברבע שמאלי תחתון,עץ על שדות וגבעות ברבע שמאלי עליון,,,,חום,לבן,,,,32.5717,34.9556
acre,עכו,Acre,city,north,mixed,found,yes,no,49614,עיירה,מגן מחולק,אדום,מגן,ספינה,דקל,חומה,גלים,מפעל,גלגל שיניים,,,,1950,מרים קרולי,עוצב על ידי מרים קרולי שזכתה בתחרות עם הכרזת עכו כעיר ב-1950,הסמל מחולק לארבעה רבעים,ספינה עתיקה מסמלת את היסטוריית עכו כעיר נמל,חומת עיר נושקת לגלי הים מסמלת את ימי הביניים,מפעל וגלגל שיניים מסמלים את התעשייה,הסמל הופיע על בול דואר ב-1965 בעיצוב האחים שמיר,"ב-2020 נוסף סמליל תחת הסיסמה ""עכו - חצי אי עולם שלם""",,אדום,כחול,לבן,,,32.9271,35.0818
afula,עפולה,Afula,city,north,jewish,found,yes,no,59075,עיר,מגן מחולק,ירוק,מגן,הר,חיטה,שמש,מוטו,,,,,,1958,,אומץ באוקטובר 1958,פטיש על סדן מסמל מלאכה,שיבולת חיטה בחצי הירוק,"הכיתוב ""עיר יזרעאל"" מופיע בתחתית הסמל",הסמל הופיע על בול דואר ב-1983,"ב-2023 אומץ סמליל ממותג עם הסיסמה ""עפולה. סיפור הצלחה יזרעאלי""",,,ירוק,כתום,,,,32.6066,35.2894
even-yehuda,מועצה מקומית אבן-יהודה,Even Yehuda,local,center,jewish,found,yes,no,14266,מועצה מקומית,מגן מחולק,לא ידוע,מגן,שדה,תפוז,,,,,,,,,,מגן מחולק לארבעה,"שדה, תרנגול, עץ תפוזים ומכון תערובת",,,,,,,,,,,,32.2639,34.8884
jaljulye,ג'לג'וליה,Jaljulye,local,center,arab,found,yes,no,10480,מועצה מקומית,מגן מחולק,לא ידוע,מגן,שמש,שדה,מסגד,מבנה עתיק,עץ,,,,,,,מגן מחולק לארבעה רבעים,שמש זורחת מעל שדות חרושים,צריח מסגד,חורבות מבנה קדום ועץ,,,,,,,,,,32.1528,34.9491
kaabiyye,כעביה-טבאש-חג'אג'רה,Ka'abiyye-Tabbash,local,north,arab,found,yes,no,5732,מועצה מקומית,מגן מחולק,כחול,מגן,שמש,גבעה,מסגד,ספר,נחל,שדה,,,,,,מגן מחולק לשלושה חלקים,שמש זורחת בין גבעות בחלק העליון,מסגד ספר ועץ בחלק האמצעי,נחל מוקף שדות חרושים בחלק התחתון,,,,,כחול,לבן,,,,32.7333,35.1833
metula,מועצה מקומית מטולה,Metula,local,north,jewish,found,yes,no,1693,מועצה מקומית,מגן מחומש,ירוק,מגן,שדה,מפל,,,,,,,,,,מגן מחומש מחולק לשניים,שדות חרושים בצד ימין,מפל מים בין הרים בצד שמאל,,,,,,,,,,,33.2783,35.5719
rosh-pina,מועצה מקומית ראש-פינה,Rosh Pina,local,north,jewish,found,yes,no,4000,מועצה מקומית,מגן מחומש,לא ידוע,מגן,שדה,מחרשה,מוטו,,,,,,,,,מגן מחומש עם סצנת חריש בשדה עם שוורים,מבוסס על תצלום החריש הראשון במושבה,האיש החורש בסמל הוא שמיל כץ שצולם בתמונה המקורית,"""אבן מאסו הבונים הייתה לראש פינה"" (תהילים קי""ח, כ""ב)",הפסוק ניתן כהצעה על ידי מייסד המושבה דוד שוב,הפסוק מתייחס לגיא אוני המושבה שקדמה לראש פינה,הסמל הופיע על בול דואר ב-1965 בעיצוב האחים שמיר,,,,,,,32.9686,35.5416
julis,ג'וליס,Julis,local,north,druze,found,yes,no,6657,מועצה מקומית,מגן מחומש,ירוק,מסגד,עץ,,,,,,,,,1969,,אומץ ב-16 בינואר 1969,מחומש עם ציור מסגד ועץ ברוש ירוק,שם המועצה בעברית וערבית,,,,,,,,,,,32.9219,35.1764
tamra,טמרה,Tamra,city,north,arab,found,yes,no,33000,עיירה,מגן מעוגל,לא ידוע,מגן,חיטה,,,,,,,,,1966,,אומץ ב-22 בספטמבר 1966,מגן מעוגל עם ציור שיבולים,שם העיר בערבית עברית ואנגלית,,,,,,,,,,,32.8538,35.1984
emek-hayarden,מועצה אזורית עמק-הירדן,Emek HaYarden,regional,north,jewish,found,yes,no,14390,מועצה אזורית,מגן מעוגל,כחול,מגן,ים,,,,,,,,,,,מגן מעוגל בעל שדה כחול עם ראש מזכיר צריח טירה,מפת הכנרת בלבן כמטען המרכזי,,,,,,,כחול,לבן,,,,32.7,35.6
beit-shemesh,בית-שמש,Beit Shemesh,city,jerusalem,jewish,found,yes,no,130000,עיר גדולה,מגן מעוגל,כחול,מגן,שמש,הר,זית,,,,,,,,,מגן מעוגל עם שדה לבנים צהובות,שמש זורחת בין ההרים בכחול,כף בנאים ופטיש מייצגים את הבנייה,ענף עץ זית בסמל,,,,,צהוב,כחול,לבן,,,31.7459,34.9888
beer-yaakov,מועצה מקומית באר-יעקב,Beer Yaakov,local,center,jewish,found,yes,no,29852,עיירה,מגן מעוגל,כתום,מגן,חיטה,תפוז,שדה,באר,,,,,,1958,,אומץ ב-13 בנובמבר 1958,שיבולת חיטה מחלקת את המגן באלכסון,עץ התפוז מסמל את ענף הפרדסנות,הבאר מסמלת באר רומית קדומה שנחפרה מחדש,הסמל מאפיין את אופיו החקלאי של היישוב שנוסד ב-1907,,,,ירוק,כחול,כתום,,,31.9414,34.8327
pardes-hanna,מועצה מקומית פרדס-חנה-כרכור,Pardes Hanna,local,haifa,jewish,found,yes,yes,40000,עיירה,מרובע,ירוק,גלגל שיניים,מגדל מים,עץ,,,,,,,,1970,,אומץ לאחר איחוד פרדס חנה וכרכור ב-6 באוגוסט 1969,גלגל שיניים מייצג תעשייה,מגדל המים מבוסס על מגדל המים של כרכור,עט כתיבה משולב כגזע עץ ומייצג חינוך,הסמל משלב מוטיבים משני הסמלים ההיסטוריים של היישובים,לפני האיחוד היו לכל יישוב סמל נפרד,ב-2019 לכבוד 50 שנה לאיחוד שונה הסמל זמנית,,ירוק,לבן,,,,32.4716,34.9583
tzfat,צפת,Safed,city,north,jewish,found,yes,no,34000,עיירה,מרובע,כחול,ענף,ציפור,גלים,,,,,,,,1958,,אומץ באוקטובר 1958,צורת הסמל מזכירה ספר תורה ספרדי,קישוטי רימון בראש הסמל יוצרים את הצורה,יונה מסמלת את הר מירון,גלים מסמלים את ים כנרת,ענף זית מסמל את עצי הזית בגליל,לוח צבעים מסמל את קריית האמנים,הסמל הופיע על בול דואר ב-1966 בעיצוב האחים שמיר,כחול כהה,לבן,צהוב,,,32.9646,35.496
usfiya,עוספיא,Usfiya,local,haifa,druze,found,yes,no,15000,מועצה מקומית,מרובע,לא ידוע,פרח,,,,,,,,,,1966,,אומץ ב-22 בספטמבר 1966,מלבן עם זר פרחים מעוגל,"המילה ""שלום"" בליבו",,,,,,,,,,,32.702,35.056
shoham,מועצה מקומית שהם,Shoham,local,center,jewish,found,yes,no,21441,עיירה,מרובע,ירוק,עץ,שמש,,,,,,,,,,,מלבן עם מסגרת ירוקה ושדה לבן,עץ ירוק צומח משם היישוב,שמש צהובה,הצבע הירוק מסמל את נוף היישוב,,,,,ירוק,לבן,צהוב,,,31.9997,34.9452
iksal,אכסאל,Iksal,local,north,arab,found,yes,no,15146,מועצה מקומית,אחר,כחול,הר,שמש,,,,,,,,,,,בצורת משולש עם שדה כחול,ציור היישוב על רקע הרים,שמש זורחת מעל,,,,,,כחול,לבן,,,,32.6806,35.3142
gush-etzion,מועצה אזורית גוש-עציון,Gush Etzion,regional,judea-samaria,jewish,found,no,yes,25000,מועצה אזורית,סמליל,ירוק,עץ,,,,,,,,,,,,האלון הבודד העומד במרכז גוש עציון קרוב ליישוב אלון שבות הוא הסמל,,,,,,,,ירוק,לבן,,,,31.65,35.1167
ashkelon,אשקלון,Ashkelon,city,south,jewish,found,yes,yes,149160,עיר גדולה,סמליל,כחול,כוכבים,גלים,גלגל שיניים,,,,,,,,1951,מרדכי קרוביצקי ושמואל טפלר,הסמל הישן אומץ ב-1951 עם הפיכתה לעיר,חמישה כוכבים סימלו את חמש שכונות העיר,עמוד שיש עם כותרת סימל את עתיקות אשקלון,ב-2021 אומץ סמל חדש עם צורות גאומטריות צבעוניות,,,,,כחול,לבן,,,,31.6688,34.5742
or-yehuda,אור-יהודה,Or Yehuda,city,tel-aviv,jewish,found,yes,yes,40000,עיירה,סמליל,כתום,שמש,קרני אור,,,,,,,,,2017,,צורות גאומטריות הפורצות ממרכז אחד לכל הכיוונים,"הצורות מרכיבות את המילה ""אור""",הצורה הימנית בכתום יוצרת את האות C כראשי תיבות Center,,,,,,כתום,לבן,,,,32.0325,34.8567
kiryat-ono,קריית-אונו,Kiryat Ono,city,tel-aviv,jewish,found,yes,yes,38000,עיירה,סמליל,ירוק,עץ,הדר,חומה,,,,,,,,1954,,אומץ ב-1954 לאחר פרישה ממועצה אזורית אונו,עץ הדר מסמל את הפרדסים באזור,חומת אבנים מסמלת את הבנייה בעיר,ב-2010 נערך סקר בין תושבים לבחירת סמל לחגיגות 70 שנה,,,,,ירוק,כתום,שחור,,,32.0636,34.8555
kiryat-shmona,קריית-שמונה,Kiryat Shmona,city,north,jewish,found,yes,no,25000,עיירה,סמליל,לא ידוע,מגן,שמש,הר,גלגל שיניים,אריה,,,,,,1974,נדב יעקב,אומץ ב-1974 עם הכרזת קריית שמונה כעיר,האריה מסמל את אנדרטת גיבורי תל חי,גלגל שיניים ומבנה תעשייה מסמלים את התעשייה,החרמון והשמש מסמלים את הנוף ואת התקווה,הסמל הראשון של המועצה אומץ ב-1954 והופיע על בול ב-1966,ב-2017 אומץ סמליל ממותג עם ספרה 8 בשמונה צבעים,,,שמונה צבעים,,,,,33.2072,35.57
binyamina-givat-ada,מועצה מקומית בנימינה-גבעת-עדה,Binyamina-Giv'at Ada,local,haifa,jewish,found,no,yes,15000,מועצה מקומית,סמליל,לא ידוע,,,,,,,,,,,2003,,אומץ ב-2003,מורכב משם המועצה המלווה בסמלי שני היישובים בנימינה וגבעת עדה,,,,,,,,,,,,32.5228,34.944
emek-yizrael,מועצה אזורית עמק-יזרעאל,Emek Yizrael,regional,north,jewish,found,yes,no,40146,מועצה אזורית,סמליל,ירוק,שדה,,,,,,,,,,1980,,אומץ ב-24 בנובמבר 1980,שני חלקים סימטריים בצורת ספר פתוח,חלק תחתון בצורת גל,קווים יוצרים תמונה של שדה חרוש,,,,,ירוק,לבן,,,,32.6167,35.3
mateh-asher,מועצה אזורית מטה-אשר,Mateh Asher,regional,north,jewish,found,yes,no,30846,מועצה אזורית,סמליל,ירוק,עץ,,,,,,,,,,,,צורת כד שתחתיתו מלאה מים,סמל ירוק בתוכו המזכיר עץ,,,,,,,ירוק,,,,,33.05,35.15
misgav,מועצה אזורית משגב,Misgav,regional,north,jewish,found,no,yes,25000,מועצה אזורית,סמליל,ירוק,,,,,,,,,,,,,המוטיב המרכזי הוא שם המועצה בעברית ובערבית,ספירלה מעוגלים בצבעים אדום כתום ירוק וכחול,,,,,,,אדום,כתום,ירוק,כחול,,32.8922,35.3052
modiin,מודיעין-מכבים-רעות,Modiin,city,center,jewish,found,yes,no,97097,עיר,סמליל,ירוק,הר,מפעל,ארובה,,,,,,,,1996,,אומץ בפברואר 1996,איור בגווני ירוק של הר,מבנה עם ארובה שממנה יוצא עשן אדום,,,,,,ירוק,אדום,,,,31.8975,35.0105
nazareth,נצרת,Nazareth,city,north,arab,found,yes,no,80000,עיר,סמליל,לא ידוע,מזרקה,עץ,,,,,,,,,1955,,אומץ בנובמבר 1955,ציור של מעיין מרים ועץ,שם העיר בערבית עברית ואנגלית,,,,,,,,,,,32.7021,35.2978
raanana,רעננה,Ra'anana,city,center,jewish,found,yes,no,78562,עיר,סמליל,ירוק,הדר,מגדל מים,,,,,,,,,2023,"ישעיהו בן-יליד (1963), עוצב מחדש 2021",הסמל המקורי עוצב ב-1963 על ידי ישעיהו בן-יליד,נבחר בתחרות גרפיקאים,עץ הדר מסמל את פרי ההדר וענפי התעשייה,שלושה מגדלי מים מייצגים את מגדלי המים ההיסטוריים,ב-1989 שופץ הסמל על ידי נאוה פורת,ב-2021 עודכן לגרסה מינימליסטית עם המספר 100,ב-2023 הוסר המספר 100 מהסמל החדש,,ירוק,לבן,,,,32.1841,34.8706
nahariya,נהריה,Nahariya,city,north,jewish,found,yes,no,61000,עיר,סמליל,כחול,מגן,שמש,שדה,זית,מגדל מים,גלים,קרני אור,מוטו,,,1941,בנימין מאייר,נבחר בתחרות ציורים ב-1941 על ידי תלמיד בית הספר ויצמן,הכתובת בעברית קדומה הוספה על ידי אפריים הלטרכט,"כתובת ""ברוך מבנים אשר"" מבוססת על ברכות משה",מגדל המים מייצג את ראשית ההתיישבות היהודית באזור,שדה חרוש וגלים מסמלים את מיקומה על החוף ואת אופייה החקלאי,הסמל הופיע על בול דואר ב-1969 בעיצוב האחים שמיר,ב-2019 אומץ סמליל ממותג עם ניקוד צבעוני,,כחול,לבן,,,,33.0079,35.095
kiryat-ata,קריית-אתא,Kiryat Ata,city,haifa,jewish,found,no,yes,57000,עיר,סמליל,ירוק,מפעל,ארובה,,,,,,,,,1969,יעקב לנדאו,אומץ עם כינון קריית אתא כעיר ב-1969,הסמל מבוסס על מפעל אתא בסמוך לעיר,נבחר בתחרות שדרשה לייצג חקלאות ותעשייה,עיצוב הסמל בידי יעקב לנדאו תושב תל אביב,ב-2016 אומץ סמליל ממותג לכבוד 90 שנה לעיר,,,,ירוק,כחול,,,,32.8059,35.1091
yavne,יבנה,Yavne,city,center,jewish,found,yes,no,53595,עיר,סמליל,כחול,שמש,מוטו,,,,,,,,,1986,דן רייזינגר,אומץ ב-1986 עם הפיכתה ממועצה מקומית לעיר,הסמל מחולק לשלושה חלקים המייצגים עבר הווה ועתיד,הכיפה המרכזית מייצגת את קבר רבן גמליאל,השמש מסמלת פיתוח ועלייה,הספר הפתוח מסמל חינוך ותרבות,הצבע הכחול מייצג את הים ואת נחל שורק ונחל יבנה,הצבע הכתום מייצג את הקרקע החולית,הסמל הקודם כלל מגן קבר רבן גמליאל שיבולת חיטה גלגל שיניים וכף בנאים,כחול,כתום,,,,31.8771,34.7425
shefaram,שפרעם,Shefaram,city,north,mixed,found,yes,no,38000,עיירה,סמליל,לא ידוע,מבנה עתיק,,,,,,,,,,1966,,אומץ ב-19 במאי 1966,ציור של מבנה אליו מחוברים שמות העיר בעברית וערבית,,,,,,,,,,,,32.8057,35.1698
ramat-hasharon,רמת-השרון,Ramat HaSharon,city,tel-aviv,jewish,found,yes,no,47000,עיירה,סמליל,ירוק,מגדל מים,פרח,,,,,,,,,1958,זאב ליפמן,עוצב על ידי זאב ליפמן מסטודיו רולי בתחרות בשנות ה-50,מגדל המים של רמת השרון נבנה ב-1930 ליד תיכון רוטברג,פרחים מסמלים את גידול הפרחים שהיה חלק מרכזי בחקלאות,הסמל מופיע על דגל העיר על רקע כתום,,,,,ירוק,לבן,,,,32.1464,34.8398
abu-sinan,אבו-סנאן,Abu Sinan,local,north,mixed,found,yes,no,14455,מועצה מקומית,סמליל,צהוב,חיטה,,,,,,,,,,1968,,אומץ ב-30 במאי 1968,שני שיבולי חיטה בצבע צהוב,,,,,,,צהוב,,,,,32.9006,35.1591
alfei-menashe,מועצה מקומית אלפי-מנשה,Alfei Menashe,local,judea-samaria,jewish,found,yes,no,9000,מועצה מקומית,סמליל,לא ידוע,שמש,ארובה,מסגד,הר,,,,,,,1985,שלומי גולן,עוצב ב-1985 על ידי שלומי גולן,שמש מסמלת מיקום מזרחי,ארובות תחנת הכוח אורות רבין,גבעות מערב השומרון,מסגד מסמל הכפרים השכנים ושאיפה לדו-קיום,,,,,,,,,32.17,35.0094
efrat,מועצה מקומית אפרת,Efrat,local,judea-samaria,jewish,found,no,yes,12000,מועצה מקומית,סמליל,חום,מבנה עתיק,שדה,עץ,מוטו,,,,,,,,משה מושקוביץ,עוצב על ידי משה מושקוביץ ראש המועצה הראשון,מבנה עם כיפה מסמל את קבר רחל,בית עם גג אדום מסמל האופי הכפרי,תלמי שדה ועצים מסמלים שורשים באדמה,"""ושבו בנים לגבולם"" (ירמיהו ל""א)",,,,חום,אדום,,,,31.66,35.1572
elkana,מועצה מקומית אלקנה,Elkana,local,judea-samaria,jewish,found,yes,no,6000,מועצה מקומית,סמליל,לא ידוע,מבנה עתיק,זית,הר,,,,,,,,,מרדכי צונץ,עוצב על ידי מרדכי צונץ,מבנה המשטרה הישן בראש הגבעה,עץ זית בחזית,,,,,,,,,,,32.112,35.0196
kiryat-arba,מועצה מקומית קריית-ארבע,Kiryat Arba,local,judea-samaria,jewish,found,yes,no,,מועצה מקומית,סמליל,לא ידוע,אריה,ענבים,הר,שופר,מוטו,,,,,,,ברוך נחשון,עוצב על ידי ברוך נחשון צייר תושב המקום,נבל מציין כי דוד המלך מלך בחברון,גפנים ורימונים משני צידי הנבל,אריה במרכז כסמל שבט יהודה,מערת המכפלה בתחתית,שופרות בקצות הנבל מסמלים גאולה,,,,,,,,31.5253,35.1350
kochav-yair,מועצה מקומית כוכב-יאיר,Kochav Yair,local,center,jewish,found,yes,no,8949,מועצה מקומית,סמליל,לא ידוע,שמש,כוכבים,,,,,,,,,,,שמש ובה איור של בית מגורים על גבעות ירוקות,הסמל נכלל בסמליל ממותג עם עלי כותרת צבעוניים,,,,,,,,,,,,32.2166,34.9716
rekhasim,מועצה מקומית רכסים,Rekhasim,local,haifa,jewish,found,yes,no,16000,מועצה מקומית,סמליל,לא ידוע,הר,,,,,,,,,,,,חמישה משולשים חופפים היוצרים מראה של רכס הרים,,,,,,,,,,,,,32.7589,35.0622
savyon,מועצה מקומית סביון,Savyon,local,center,jewish,found,yes,no,4051,מועצה מקומית,סמליל,ירוק,פרח,,,,,,,,,,,,סמליל מודרני בצבע ירוק המזכיר צורת פרח,,,,,,,,ירוק,,,,,32.047,34.8696
shlomi,מועצה מקומית שלומי,Shlomi,local,north,jewish,found,yes,no,8000,מועצה מקומית,סמליל,ירוק,עץ,,,,,,,,,,,,שם וסיסמת העיר בעברית ואנגלית,סמליל עץ עם ענפים בצבעי ירוק אדום תכלת וכתום,,,,,,,ירוק,אדום,תכלת,כתום,,33.0694,35.1481
daliyat-karmel,דאלית-אל-כרמל,Daliyat al-Karmel,regional,haifa,druze,found,yes,no,18000,מועצה אזורית,סמליל,ירוק,ענבים,,,,,,,,,,2013,,אומץ ב-2013,צורת עלה תאנה עם אשכול ענבים ובו 10 סמלים קטנים,בעבר היה סמל אחר עם מקאם הנביא אבו אברהים,,,,,,ירוק,,,,,32.6869,35.0602
emek-hamayanot,מועצה אזורית עמק-המעיינות,Emek Hama'ayanot,regional,north,jewish,found,yes,no,14377,מועצה אזורית,סמליל,צהוב,גבעה,שמש,,,,,,,,,,,שם המועצה הוא המוטיב המרכזי,קו מעוגל בצורת גבעה מעליה שמש צהובה,,,,,,,צהוב,,,,,32.55,35.45
nahal-soreq,מועצה אזורית נחל-שורק,Nahal Soreq,regional,center,jewish,found,no,yes,10189,מועצה אזורית,סמליל,ירוק,גבעה,שדה,ענבים,מנורה,ספר,,,,,,2017,,אומץ ב-2017,שתי גבעות חרושות בירוק ובורדו,על גבעה אחת יישוב עם מנורה,על גבעה שנייה מגילת ספר תורה,אשכול ענבים בחזית,,,,ירוק,בורדו,,,,31.8283,34.9522
sadot-dan,מועצה אזורית שדות-דן,Sadot Dan,regional,north,jewish,found,no,yes,15987,מועצה אזורית,סמליל,לא ידוע,,,,,,,,,,,,,סמליל מודרני הכולל את שם המועצה,ממנו יוצאים זיקוקים,,,,,,,,,,,,33.2,35.6167
shaar-shomron,שער שומרון,Shaar Shomron,local,center,jewish,found,yes,no,,מועצה מקומית,סמליל,ירוק,הר,עץ,צבי,,,,,,,,2022,יולי צ'רניאק,עוצב ב-2022 על ידי יולי צ'רניאק,הרי מערב השומרון בסמל,עצים האופיניים לאזור,צבי ארץ ישראלי בזינוק מסמל תנופה,בית רעפים כפרי כחזון חלוצי,בעיצוב המקורי היה אייל ולא צבי ועודכן לאחר משוב תושבים,,,,,,,,32.1514,35.0486
ramat-yishay,מועצה מקומית רמת-ישי,Ramat Yishay,local,north,jewish,found,no,yes,7000,מועצה מקומית,סמליל,ורוד,חאן,מגדל מים,,,,,,,,,,,ציורי החאן ומגדל המים ביישוב,מוקפים בשלוש טבעות בצבעי ורוד כחול וכתום,"סיסמת המועצה ""הלב הפועם של העמק""",,,,,,ורוד,כחול,כתום,,,32.7008,35.1822
ein-knia,עין-קיניה,Ein Knia,local,north,druze,found,yes,no,2172,מועצה מקומית,שער,לא ידוע,מבצר,הר,,,,,,,,,,,שער אבן עגול התחום בחלקו התחתון בחומת אבן,ברקע ציור של רכס הרים עם מבנים,,,,,,,,,,,,33.2656,35.7625
katzrin,מועצה מקומית קצרין,Katzrin,local,north,jewish,found,yes,no,8000,מועצה מקומית,שער,כתום,מבנה עתיק,שער,,,,,,,,,,,שער אבן בצבע כתום,ציור של פנים מבנה מאחורי השער,שם המועצה בתחתית,,,,,,כתום,,,,,32.9944,35.6906
mitzpe-ramon,מועצה מקומית מצפה-רמון,Mitzpe Ramon,local,south,jewish,found,yes,no,5178,מועצה מקומית,,,,,,,,,,,,,,,,,,,,,,,,,,,,30.6103,34.8019
omer,מועצה מקומית עומר,Omer,local,south,jewish,found,yes,no,7656,מועצה מקומית,,,,,,,,,,,,,,,,,,,,,,,,,,,,31.2647,34.8522
bnei-shimon,מועצה אזורית בני-שמעון,Bnei Shimon,regional,south,jewish,found,yes,no,11419,מועצה אזורית,,,,,,,,,,,,,,,,,,,,,,,,,,,,31.2833,34.8333
merhavim,מועצה אזורית מרחבים,Merhavim,regional,south,jewish,found,yes,no,14605,מועצה אזורית,,,,,,,,,,,,,,,,,,,,,,,,,,,,31.3667,34.8667
shafir,מועצה אזורית שפיר,Shafir,regional,south,jewish,found,yes,no,12853,מועצה אזורית,,,,,,,,,,,,,,,,,,,,,,,,,,,,31.6833,34.7167
tamar,מועצה אזורית תמר,Tamar,regional,south,jewish,found,yes,no,1572,מועצה אזורית,,,,,,,,,,,,,,,,,,,,,,,,,,,,30.65,35.25
dimona,דימונה,Dimona,city,south,jewish,found,yes,no,35892,עיירה,,,,,,,,,,,,,,,,,,,,,,,,,,,,31.0692,35.0333
netivot,נתיבות,Netivot,city,south,jewish,found,yes,no,42039,עיירה,,,,,,,,,,,,,,,,,,,,,,,,,,,,31.4222,34.5889
ofakim,אופקים,Ofakim,city,south,jewish,found,yes,no,33999,עיירה,,,,,,,,,,,,,,,,,,,,,,,,,,,,31.3147,34.6225
rahat,רהט,Rahat,city,south,bedouin,found,yes,no,76237,עיר,,,,,,,,,,,,,,,,,,,,,,,,,,,,31.3926,34.7539
sderot,שדרות,Sderot,city,south,jewish,found,yes,no,30553,עיירה,,,,,,,,,,,,,,,,,,,,,,,,,,,,31.5242,34.5964
umm-al-fahm,אום-אל-פחם,Umm al-Fahm,city,haifa,arab,found,yes,no,58000,עיר,,,,,,,,,,,,,,,,,,,,,,,,,,,,32.5158,35.1522
maale-adumim,מעלה-אדומים,Ma'ale Adumim,city,judea-samaria,jewish,found,yes,no,40000,עיירה,,,,,,,,,,,,,,,,,,,,,,,,,,,,31.7728,35.2983
beitar-illit,ביתר-עילית,Beitar Illit,city,judea-samaria,jewish,found,yes,no,70000,עיר,,,,,,,,,,,,,,,,,,,,,,,,,,,,31.696,35.1226
yeroham,מועצה מקומית ירוחם,Yeruham,local,south,jewish,found,yes,no,11031,מועצה מקומית,,,,,,,,,,,,,,,,,,,,,,,,,,,,30.9883,34.9244
arad,מועצה מקומית ערד,Arad,local,south,jewish,found,no,yes,,מועצה מקומית,,,,,,,,,,,,,,,,,,,,,,,,,,,,31.2589,35.2122
lachish,מועצה אזורית לכיש,Lachish,regional,south,jewish,found,yes,no,13778,מועצה אזורית,,,,,,,,,,,,,,,,,,,,,,,,,,,,31.55,34.85
ramat-negev,מועצה אזורית רמת-נגב,Ramat Negev,regional,south,jewish,found,no,yes,8558,מועצה אזורית,,,,,,,,,,,,,,,,,,,,,,,,,,,,30.7,34.75
yoav,מועצה אזורית יואב,Yoav,regional,south,jewish,found,yes,no,9197,מועצה אזורית,,,,,,,,,,,,,,,,,,,,,,,,,,,,31.65,34.8667
taibeh,טייבה,Taibeh,city,center,arab,found,yes,no,45388,עיירה,,,,,,,,,,,,,,,,,,,,,,,,,,,,32.28,35.0019
abu-ghosh,אבו-גוש,Abu Ghosh,local,jerusalem,arab,found,yes,no,8000,מועצה מקומית,,,,,,,,,,,,,,,,,,,,,,,,,,,,31.8058,35.1094
arara,ערערה,Ar'ara,local,haifa,arab,found,yes,no,15000,מועצה מקומית,,,,,,,,,,,,,,,,,,,,,,,,,,,,32.4969,35.0678
arara-banegev,ערערה-בנגב,Ar'ara BaNegev,local,south,bedouin,found,yes,no,,מועצה מקומית,,,,,,,,,,,,,,,,,,,,,,,,,,,,31.2533,34.8006
arraba,עראבה,Arraba,local,north,arab,found,yes,no,26641,עיירה,,,,,,,,,,,,,,,,,,,,,,,,,,,,32.8523,35.3369
basma,"בסמ""ה",Basma,local,haifa,arab,found,yes,no,5000,מועצה מקומית,,,,,,,,,,,,,,,,,,,,,,,,,,,,32.6083,35.2028
beit-aryeh,מועצה מקומית בית-אריה,Beit Aryeh,local,judea-samaria,jewish,found,yes,no,8000,מועצה מקומית,,,,,,,,,,,,,,,,,,,,,,,,,,,,32.0342,35.031
beit-el,מועצה מקומית בית-אל,Beit El,local,judea-samaria,jewish,found,yes,no,7000,מועצה מקומית,,,,,,,,,,,,,,,,,,,,,,,,,,,,31.9333,35.2167
bir-elmaksur,ביר-אל-מכסור,Bir-Elmaksur,local,north,arab,found,yes,no,9959,מועצה מקומית,,,,,,,,,,,,,,,,,,,,,,,,,,,,32.9111,35.2428
bosmat-tivon,בסמת-טבעון,Bosmat Tivon,local,north,arab,found,yes,no,8068,מועצה מקומית,,,,,,,,,,,,,,,,,,,,,,,,,,,,32.7,35.1333
buqata,בוקעאתה,Buq'ata,local,north,druze,found,yes,no,6752,מועצה מקומית,,,,,,,,,,,,,,,,,,,,,,,,,,,,33.2347,35.7686
daburiyya,דבוריה,Daburiyya,local,north,arab,found,yes,no,10782,מועצה מקומית,,,,,,,,,,,,,,,,,,,,,,,,,,,,32.6903,35.3678
deir-hanna,דיר-חנא,Deir Hanna,local,north,arab,found,yes,no,10599,מועצה מקומית,,,,,,,,,,,,,,,,,,,,,,,,,,,,32.8606,35.3703
deir-al-asad,דיר-אל-אסד,Deir al-Asad,local,north,arab,found,yes,no,12935,מועצה מקומית,,,,,,,,,,,,,,,,,,,,,,,,,,,,32.9372,35.2214
emanuel,מועצה מקומית עמנואל,Emanuel,local,judea-samaria,jewish,found,yes,no,,מועצה מקומית,,,,,,,,,,,,,,,,,,,,,,,,,,,,32.1594,35.0947
fassuta,פסוטה,Fassuta,local,north,arab,found,yes,no,3236,מועצה מקומית,,,,,,,,,,,,,,,,,,,,,,,,,,,,33.0747,35.2772
givat-zeev,מועצה מקומית גבעת-זאב,Givat Zeev,local,judea-samaria,jewish,found,no,yes,20000,עיירה,,,,,,,,,,,,,,,,,,,,,,,,,,,,31.8572,35.1736
har-adar,מועצה מקומית הר-אדר,Har Adar,local,judea-samaria,jewish,found,no,yes,,מועצה מקומית,,,,,,,,,,,,,,,,,,,,,,,,,,,,31.8033,35.0939
hura,חורה,Hura,local,south,bedouin,found,yes,no,23943,עיירה,,,,,,,,,,,,,,,,,,,,,,,,,,,,31.2722,34.935
ilut,עילוט,Ilut,local,north,arab,found,yes,no,8654,מועצה מקומית,,,,,,,,,,,,,,,,,,,,,,,,,,,,32.7011,35.2928
judeidi-makr,ג'דיידה-מכר,Judeidi-Makr,local,north,arab,found,yes,no,21507,עיירה,,,,,,,,,,,,,,,,,,,,,,,,,,,,32.9297,35.1511
kafr-manda,כפר-מנדא,Kafr Manda,local,north,arab,found,yes,no,21073,עיירה,,,,,,,,,,,,,,,,,,,,,,,,,,,,32.8167,35.2597
kafr-yasif,כפר-יאסיף,Kafr Yasif,local,north,mixed,found,yes,no,10323,מועצה מקומית,,,,,,,,,,,,,,,,,,,,,,,,,,,,32.9508,35.1686
karnei-shomron,מועצה מקומית קרני-שומרון,Karnei Shomron,local,judea-samaria,jewish,found,yes,no,9000,מועצה מקומית,,,,,,,,,,,,,,,,,,,,,,,,,,,,32.1728,35.0553
kedumim,מועצה מקומית קדומים,Kedumim,local,judea-samaria,jewish,found,yes,no,5000,מועצה מקומית,,,,,,,,,,,,,,,,,,,,,,,,,,,,32.2333,35.1167
kfar-kana,כפר-כנא,Kfar Kana,local,north,arab,found,yes,no,,מועצה מקומית,,,,,,,,,,,,,,,,,,,,,,,,,,,,32.7461,35.3383
kfar-qasem,כפר-קאסם,Kfar Qasem,local,center,arab,found,yes,no,24757,עיירה,,,,,,,,,,,,,,,,,,,,,,,,,,,,32.1153,34.9753
kfar-vradim,מועצה מקומית כפר-ורדים,Kfar Vradim,local,north,jewish,found,no,yes,5531,מועצה מקומית,,,,,,,,,,,,,,,,,,,,,,,,,,,,33.0178,35.2447
kiryat-ekron,מועצה מקומית קריית-עקרון,Kiryat Ekron,local,center,jewish,found,yes,no,11051,מועצה מקומית,,,,,,,,,,,,,,,,,,,,,,,,,,,,31.8647,34.8269
kisra-sumei,כסרא-סמיע,Kisra-Sumei,local,north,druze,found,yes,no,9108,מועצה מקומית,,,,,,,,,,,,,,,,,,,,,,,,,,,,32.9622,35.2981
kuseife,כסיפה,Kuseife,local,south,bedouin,found,yes,no,23219,עיירה,,,,,,,,,,,,,,,,,,,,,,,,,,,,31.2581,34.9047
laqye,לקיה,Laqye,local,south,bedouin,found,yes,no,15295,מועצה מקומית,,,,,,,,,,,,,,,,,,,,,,,,,,,,31.3583,34.9069
reina,ריינה,Reina,local,north,arab,found,yes,no,14000,מועצה מקומית,,,,,,,,,,,,,,,,,,,,,,,,,,,,32.7281,35.3022
shab-al-salim,שעב,Shab al-Salim,local,north,arab,found,yes,no,5000,מועצה מקומית,,,,,,,,,,,,,,,,,,,,,,,,,,,,32.8556,35.3706
taibeh-north,טייבה-צפון,Taibeh (North),local,north,arab,found,yes,no,8000,מועצה מקומית,,,,,,,,,,,,,,,,,,,,,,,,,,,,32.28,35.0019
tel-mond,מועצה מקומית תל-מונד,Tel Mond,local,center,jewish,found,yes,no,14179,מועצה מקומית,,,,,,,,,,,,,,,,,,,,,,,,,,,,32.2561,34.9258
tuba-zangariyye,טובא-זנגרייה,Tuba-Zangariyye,local,north,arab,found,yes,no,8000,מועצה מקומית,,,,,,,,,,,,,,,,,,,,,,,,,,,,32.9933,35.5628
yarka,ירכא,Yarka,local,north,druze,found,yes,no,16000,מועצה מקומית,,,,,,,,,,,,,,,,,,,,,,,,,,,,32.9508,35.1828
lehavim,מועצה מקומית להבים,Lehavim,local,south,jewish,found,yes,no,6977,מועצה מקומית,,,,,,,,,,,,,,,,,,,,,,,,,,,,31.3636,34.8228
maale-efraim,מועצה מקומית מעלה-אפרים,Maale Efraim,local,judea-samaria,jewish,found,yes,no,7000,מועצה מקומית,,,,,,,,,,,,,,,,,,,,,,,,,,,,32.0167,35.4
maale-iron,מעלה-עירון,Maale Iron,local,haifa,arab,found,yes,no,12000,מועצה מקומית,,,,,,,,,,,,,,,,,,,,,,,,,,,,32.4317,35.0383
masada,מסעדה,Masada,local,north,druze,found,yes,no,10000,מועצה מקומית,,,,,,,,,,,,,,,,,,,,,,,,,,,,31.3139,35.3542
mashhad,משהד,Mashhad,local,north,arab,found,yes,no,8655,מועצה מקומית,,,,,,,,,,,,,,,,,,,,,,,,,,,,32.74,35.355
mazraa,מזרעה,Mazraa,local,north,arab,found,yes,no,4078,מועצה מקומית,,,,,,,,,,,,,,,,,,,,,,,,,,,,32.8628,35.2533
meitar,מועצה מקומית מיתר,Meitar,local,south,jewish,found,yes,no,10565,מועצה מקומית,,,,,,,,,,,,,,,,,,,,,,,,,,,,31.3722,34.9039
nahef,נחף,Nahef,local,north,arab,found,yes,no,9000,מועצה מקומית,,,,,,,,,,,,,,,,,,,,,,,,,,,,32.9442,35.2819
neot-hovav,מועצה מקומית נאות-חובב,Neot Hovav,local,south,jewish,found,yes,no,2000,מועצה מקומית,,,,,,,,,,,,,,,,,,,,,,,,,,,,31.15,35.0333
oranit,מועצה מקומית אורנית,Oranit,local,judea-samaria,jewish,found,yes,no,8000,מועצה מקומית,,,,,,,,,,,,,,,,,,,,,,,,,,,,32.1003,34.975
pardesia,מועצה מקומית פרדסיה,Pardesia,local,center,jewish,found,yes,no,7251,מועצה מקומית,,,,,,,,,,,,,,,,,,,,,,,,,,,,32.35,34.9083
peqiin,פקיעין,Peqiin,local,north,druze,found,yes,no,5000,מועצה מקומית,,,,,,,,,,,,,,,,,,,,,,,,,,,,32.9781,35.3272
rameh,ראמה,Rameh,local,north,arab,found,yes,no,8000,מועצה מקומית,,,,,,,,,,,,,,,,,,,,,,,,,,,,32.935,35.3636
segev-shalom,שגב-שלום,Segev Shalom,local,south,bedouin,found,yes,no,11865,מועצה מקומית,,,,,,,,,,,,,,,,,,,,,,,,,,,,31.2833,34.8917
shab,שעב,Sha'ab,local,north,arab,found,yes,no,5000,מועצה מקומית,,,,,,,,,,,,,,,,,,,,,,,,,,,,32.8556,35.3706
tel-sheva,תל-שבע,Tel Sheva,local,south,bedouin,found,yes,no,22187,עיירה,,,,,,,,,,,,,,,,,,,,,,,,,,,,31.2458,34.9267
turan,טורעאן,Tur'an,local,north,arab,found,yes,no,19000,מועצה מקומית,,,,,,,,,,,,,,,,,,,,,,,,,,,,32.765,35.3783
yafa-an-naseriyye,יפיע,Yafa an-Naseriyye,local,north,arab,found,yes,no,20000,עיירה,,,,,,,,,,,,,,,,,,,,,,,,,,,,32.6683,35.2994
yavneel,מועצה מקומית יבנאל,Yavneel,local,north,jewish,found,yes,yes,5000,מועצה מקומית,,,,,,,,,,,,,,,,,,,,,,,,,,,,32.7117,35.4983
alona,מועצה אזורית אלונה,Alona,regional,haifa,jewish,found,yes,no,,מועצה אזורית,,,,,,,,,,,,,,,,,,,,,,,,,,,,32.5,35.0167
central-arava,מועצה אזורית ערבה-תיכונה,Central Arava,regional,south,jewish,found,yes,no,3772,מועצה אזורית,,,,,,,,,,,,,,,,,,,,,,,,,,,,30.5,35.05
eshkol,מועצה אזורית אשכול,Eshkol,regional,south,jewish,found,yes,no,15205,מועצה אזורית,,,,,,,,,,,,,,,,,,,,,,,,,,,,31.2333,34.5167
gderot,מועצה אזורית גדרות,Gderot,regional,center,jewish,found,yes,no,5192,מועצה אזורית,,,,,,,,,,,,,,,,,,,,,,,,,,,,31.7833,34.6833
har-hevron,מועצה אזורית הר-חברון,Har Hevron,regional,judea-samaria,jewish,found,no,yes,17000,מועצה אזורית,,,,,,,,,,,,,,,,,,,,,,,,,,,,31.5167,35.0833
hevel-eilot,מועצה אזורית חבל-אילות,Hevel Eilot,regional,south,jewish,found,yes,no,4745,מועצה אזורית,,,,,,,,,,,,,,,,,,,,,,,,,,,,29.65,34.95
hof-ashkelon,מועצה אזורית חוף-אשקלון,Hof Ashkelon,regional,south,jewish,found,yes,no,19295,מועצה אזורית,,,,,,,,,,,,,,,,,,,,,,,,,,,,31.6,34.55
jordan-valley,מועצה אזורית בקעת-הירדן,Jordan Valley,regional,judea-samaria,jewish,found,yes,no,10000,מועצה אזורית,,,,,,,,,,,,,,,,,,,,,,,,,,,,32.0,35.45
megilot-yam-hamelah,מועצה אזורית מגילות-ים-המלח,Megilot Yam HaMelah,regional,judea-samaria,jewish,found,no,yes,1500,מועצה אזורית,,,,,,,,,,,,,,,,,,,,,,,,,,,,31.5,35.4
modiin-region,מועצה אזורית חבל-מודיעין,Modiin Region,regional,center,jewish,found,no,yes,30000,מועצה אזורית,,,,,,,,,,,,,,,,,,,,,,,,,,,,31.9,35.0
neve-midbar,נווה-מדבר,Neve Midbar,regional,south,bedouin,found,yes,no,13309,מועצה אזורית,,,,,,,,,,,,,,,,,,,,,,,,,,,,31.4,35.3
sdot-negev,מועצה אזורית שדות-נגב,Sdot Negev,regional,south,jewish,found,yes,no,11062,מועצה אזורית,,,,,,,,,,,,,,,,,,,,,,,,,,,,31.45,34.6167
shaar-hanegev,מועצה אזורית שער-הנגב,Shaar HaNegev,regional,south,jewish,found,no,no,9071,מועצה אזורית,,,,,,,,,,,,,,,,,,,,,,,,,,,,31.5167,34.6167
shaar-hagalil,מועצה אזורית שער-הגליל,Shaar Hagalil,regional,north,jewish,found,yes,no,5000,מועצה אזורית,,,,,,,,,,,,,,,,,,,,,,,,,,,,32.7,35.55
emek-lod,מועצה אזורית עמק לוד,Emek Lod,regional,center,jewish,obsolete,no,no,15987,מועצה אזורית,,,,,,,,,,,,,,,,,,,,,,,,,,,,31.9516,34.8965
givat-ada,מועצה מקומית גבעת עדה,Giv'at Ada,local,haifa,jewish,obsolete,no,no,,מועצה מקומית,,,,,,,,,,,,,,,,,,,,,,,,,,,,32.535,34.955
binyamina-old,מועצה מקומית בנימינה,Binyamina (old COA),local,haifa,jewish,obsolete,no,no,,מועצה מקומית,,,,,,,,,,,,,,,,,,,,,,,,,,,,32.5228,34.944
jatt,ג'ת,Jatt,local,center,arab,found,yes,no,10000,מועצה מקומית,,,,,,,,,,,,,,,,,,,,,,,,,,,,32.3622,35.0453
miilya,מעיליא,Mi'ilya,local,north,arab,found,yes,no,,מועצה מקומית,,,,,,,,,,,,,,,,,,,,,,,,,,,,33.0444,35.2608
yesod-hamaala,יסוד המעלה,Yesod HaMaala,local,north,jewish,found,yes,no,2000,מועצה מקומית,,,,,,,,,,,,,,,,,,,,,,,,,,,,33.0567,35.5939
zemer,זמר,Zemer,local,center,arab,found,yes,no,7360,מועצה מקומית,,,,,,,,,,,,,,,,,,,,,,,,,,,,32.3833,35.0
zur-hadassa,צור הדסה,Zur Hadassa,local,jerusalem,jewish,found,yes,no,6000,מועצה מקומית,,,,,,,,,,,,,,,,,,,,,,,,,,,,31.7083,35.0917
bana,בענה,Bana,local,north,arab,found,yes,no,8536,מועצה מקומית,,,,,,,,,,,,,,,,,,,,,,,,,,,,32.9353,35.2394
majd-al-krum,מג'ד אל-כרום,Majd al-Krum,local,north,arab,found,yes,no,15630,מועצה מקומית,,,,,,,,,,,,,,,,,,,,,,,,,,,,32.9314,35.2389
shaarei-tikva,שערי תקווה,Shaarei Tikva,local,judea-samaria,jewish,found,yes,no,8000,מועצה מקומית,,,,,,,,,,,,,,,,,,,,,,,,,,,,32.1167,34.9833
neve-monosson,נווה מונוסון,Neve Monosson,local,tel-aviv,jewish,found,yes,no,,מועצה מקומית,,,,,,,,,,,,,,,,,,,,,,,,,,,,32.0167,34.8833
maccabim-reut,מכבים-רעות,Maccabim-Reut,local,center,jewish,obsolete,no,no,,מועצה מקומית,,,,,,,,,,,,,,,,,,,,,,,,,,,,31.8913,34.9996
